stop_id,stop_name,stop_lat,stop_lon
東京_JR中央線,東京,35.681391,139.766103
神田_JR中央線,神田,35.691173,139.770641
御茶ノ水_JR中央線,御茶ノ水,35.699604,139.764955
水道橋_JR中央線,水道橋,35.702039,139.754312
飯田橋_JR中央線,飯田橋,35.701835,139.745143
市ケ谷_JR中央線,市ケ谷,35.691105,139.735241
四ツ谷_JR中央線,四ツ谷,35.686041,139.730644
信濃町_JR中央線,信濃町,35.680031,139.720729
千駄ケ谷_JR中央線,千駄ケ谷,35.681231,139.711644
代々木_JR中央線,代々木,35.683061,139.702042
新宿_JR中央線,新宿,35.689729,139.700464
大久保_JR中央線,大久保,35.700784,139.69732
東中野_JR中央線,東中野,35.706529,139.684436
中野_JR中央線,中野,35.705765,139.665835
高円寺_JR中央線,高円寺,35.705327,139.649664
阿佐ケ谷_JR中央線,阿佐ケ谷,35.704818,139.635868
荻窪_JR中央線,荻窪,35.704523,139.620109
西荻窪_JR中央線,西荻窪,35.703842,139.599361
吉祥寺_JR中央線,吉祥寺,35.703119,139.579765
三鷹_JR中央線,三鷹,35.702683,139.560325
武蔵境_JR中央線,武蔵境,35.702083,139.543402
東小金井_JR中央線,東小金井,35.701643,139.524837
武蔵小金井_JR中央線,武蔵小金井,35.701337,139.506483
国分寺_JR中央線,国分寺,35.700123,139.480841
西国分寺_JR中央線,西国分寺,35.699744,139.465994
国立_JR中央線,国立,35.69923,139.44634
立川_JR中央線,立川,35.698202,139.413704
日野_JR中央線,日野,35.679244,139.39393
豊田_JR中央線,豊田,35.659502,139.381495
八王子_JR中央線,八王子,35.655555,139.338998
西八王子_JR中央線,西八王子,35.656621,139.31264
高尾_JR中央線,高尾,35.642026,139.282288
高尾_JR中央本線,高尾,35.642026,139.282288
相模湖_JR中央本線,相模湖,35.617335,139.1885
藤野_JR中央本線,藤野,35.615918,139.15239
上野原_JR中央本線,上野原,35.618747,139.115787
四方津_JR中央本線,四方津,35.614252,139.072572
梁川_JR中央本線,梁川,35.605271,139.038076
鳥沢_JR中央本線,鳥沢,35.608118,139.003345
猿橋_JR中央本線,猿橋,35.61288,138.968388
大月_JR中央本線,大月,35.613222,138.942729
初狩_JR中央本線,初狩,35.594274,138.883966
笹子_JR中央本線,笹子,35.603921,138.825205
甲斐大和_JR中央本線,甲斐大和,35.639364,138.781632
勝沼ぶどう郷_JR中央本線,勝沼ぶどう郷,35.67279,138.74323
塩山_JR中央本線,塩山,35.705327,138.734796
東山梨_JR中央本線,東山梨,35.694313,138.703026
山梨市_JR中央本線,山梨市,35.684961,138.683003
春日居町_JR中央本線,春日居町,35.673491,138.659
石和温泉_JR中央本線,石和温泉,35.657603,138.634577
酒折_JR中央本線,酒折,35.659486,138.598852
甲府_JR中央本線,甲府,35.667054,138.569015
竜王_JR中央本線,竜王,35.668764,138.519298
塩崎_JR中央本線,塩崎,35.687734,138.487521
韮崎_JR中央本線,韮崎,35.709711,138.451357
新府_JR中央本線,新府,35.736802,138.433093
穴山_JR中央本線,穴山,35.75107,138.413858
日野春_JR中央本線,日野春,35.79065,138.394316
長坂_JR中央本線,長坂,35.827061,138.366459
小淵沢_JR中央本線,小淵沢,35.863808,138.316351
信濃境_JR中央本線,信濃境,35.884952,138.275419
富士見_JR中央本線,富士見,35.912183,138.238071
すずらんの里_JR中央本線,すずらんの里,35.930288,138.211775
青柳_JR中央本線,青柳,35.942581,138.197612
茅野_JR中央本線,茅野,35.995062,138.151674
上諏訪_JR中央本線,上諏訪,36.046618,138.116306
下諏訪_JR中央本線,下諏訪,36.071949,138.084953
岡谷_JR中央本線,岡谷,36.056693,138.045001
みどり湖_JR中央本線,みどり湖,36.094176,137.981928
塩尻_JR中央本線,塩尻,36.114364,137.947961
洗馬_JR中央本線,洗馬,36.087164,137.916842
日出塩_JR中央本線,日出塩,36.049004,137.894804
贄川_JR中央本線,贄川,36.014008,137.86091
木曽平沢_JR中央本線,木曽平沢,35.979108,137.832613
奈良井_JR中央本線,奈良井,35.969476,137.816195
藪原_JR中央本線,藪原,35.930152,137.784368
宮ノ越_JR中央本線,宮ノ越,35.888337,137.763794
原野_JR中央本線,原野,35.871245,137.741536
木曽福島_JR中央本線,木曽福島,35.843669,137.69343
上松_JR中央本線,上松,35.784068,137.693283
倉本_JR中央本線,倉本,35.732939,137.714338
須原_JR中央本線,須原,35.69769,137.694844
大桑_JR中央本線,大桑,35.684477,137.664224
野尻_JR中央本線,野尻,35.673042,137.636152
十二兼_JR中央本線,十二兼,35.645418,137.617569
南木曽_JR中央本線,南木曽,35.598896,137.608672
田立_JR中央本線,田立,35.588281,137.54893
坂下_JR中央本線,坂下,35.574218,137.531094
落合川_JR中央本線,落合川,35.525116,137.530034
中津川_JR中央本線,中津川,35.50036,137.502867
美乃坂本_JR中央本線,美乃坂本,35.479286,137.450364
恵那_JR中央本線,恵那,35.455063,137.407764
武並_JR中央本線,武並,35.437938,137.35417
釜戸_JR中央本線,釜戸,35.411103,137.30501
瑞浪_JR中央本線,瑞浪,35.369081,137.252017
土岐市_JR中央本線,土岐市,35.359708,137.182082
多治見_JR中央本線,多治見,35.334774,137.120294
古虎渓_JR中央本線,古虎渓,35.302955,137.101011
定光寺_JR中央本線,定光寺,35.278015,137.080981
高蔵寺_JR中央本線,高蔵寺,35.26434,137.043766
神領_JR中央本線,神領,35.256234,137.010006
春日井_JR中央本線,春日井,35.243139,136.985307
勝川_JR中央本線,勝川,35.22982,136.956285
新守山_JR中央本線,新守山,35.207283,136.951207
大曽根_JR中央本線,大曽根,35.191508,136.937161
千種_JR中央本線,千種,35.170168,136.930665
鶴舞_JR中央本線,鶴舞,35.156416,136.917436
金山_JR中央本線,金山,35.142928,136.900517
名古屋_JR中央本線,名古屋,35.170694,136.881637
拝島_JR五日市線,拝島,35.721278,139.343468
熊川_JR五日市線,熊川,35.728321,139.33584
東秋留_JR五日市線,東秋留,35.725904,139.311665
秋川_JR五日市線,秋川,35.727998,139.286715
武蔵引田_JR五日市線,武蔵引田,35.729711,139.269907
武蔵増戸_JR五日市線,武蔵増戸,35.730961,139.256355
武蔵五日市_JR五日市線,武蔵五日市,35.732248,139.228039
大宮_JR京浜東北線,大宮,35.906439,139.62405
さいたま新都心_JR京浜東北線,さいたま新都心,35.893867,139.633587
与野_JR京浜東北線,与野,35.884393,139.639085
北浦和_JR京浜東北線,北浦和,35.872053,139.645951
浦和_JR京浜東北線,浦和,35.858496,139.657109
南浦和_JR京浜東北線,南浦和,35.847648,139.669125
蕨_JR京浜東北線,蕨,35.827959,139.690357
西川口_JR京浜東北線,西川口,35.815514,139.704312
川口_JR京浜東北線,川口,35.801869,139.717472
赤羽_JR京浜東北線,赤羽,35.778026,139.720928
東十条_JR京浜東北線,東十条,35.763803,139.726858
王子_JR京浜東北線,王子,35.752538,139.73809
上中里_JR京浜東北線,上中里,35.74728,139.745769
田端_JR京浜東北線,田端,35.737781,139.761229
西日暮里_JR京浜東北線,西日暮里,35.731954,139.766857
日暮里_JR京浜東北線,日暮里,35.727908,139.771287
鶯谷_JR京浜東北線,鶯谷,35.721484,139.778015
上野_JR京浜東北線,上野,35.71379,139.777043
御徒町_JR京浜東北線,御徒町,35.707282,139.774727
秋葉原_JR京浜東北線,秋葉原,35.698619,139.773288
神田_JR京浜東北線,神田,35.691173,139.770641
東京_JR京浜東北線,東京,35.681391,139.766103
有楽町_JR京浜東北線,有楽町,35.675441,139.763806
新橋_JR京浜東北線,新橋,35.666195,139.758587
浜松町_JR京浜東北線,浜松町,35.655391,139.757135
田町_JR京浜東北線,田町,35.645737,139.747575
高輪ゲートウェイ_JR京浜東北線,高輪ゲートウェイ,35.635476,139.740651
品川_JR京浜東北線,品川,35.62876,139.738999
大井町_JR京浜東北線,大井町,35.606257,139.73485
大森_JR京浜東北線,大森,35.588903,139.728079
蒲田_JR京浜東北線,蒲田,35.562517,139.716032
川崎_JR京浜東北線,川崎,35.531311,139.697485
鶴見_JR京浜東北線,鶴見,35.508387,139.67614
新子安_JR京浜東北線,新子安,35.487064,139.654776
東神奈川_JR京浜東北線,東神奈川,35.47804,139.633466
横浜_JR京浜東北線,横浜,35.466195,139.622704
東京_JR京葉線,東京,35.681391,139.766103
八丁堀_JR京葉線,八丁堀,35.674617,139.777705
越中島_JR京葉線,越中島,35.667946,139.792713
潮見_JR京葉線,潮見,35.658702,139.817341
新木場_JR京葉線,新木場,35.646172,139.827402
葛西臨海公園_JR京葉線,葛西臨海公園,35.644392,139.861529
舞浜_JR京葉線,舞浜,35.636115,139.883714
新浦安_JR京葉線,新浦安,35.649526,139.912553
市川塩浜_JR京葉線,市川塩浜,35.666554,139.923684
西船橋_JR京葉線,西船橋,35.707283,139.959536
二俣新町_JR京葉線,二俣新町,35.691273,139.959525
南船橋_JR京葉線,南船橋,35.681804,139.995773
新習志野_JR京葉線,新習志野,35.667342,140.012825
幕張豊砂_JR京葉線,幕張豊砂,35.657991,140.027061
海浜幕張_JR京葉線,海浜幕張,35.648373,140.041917
検見川浜_JR京葉線,検見川浜,35.637291,140.058888
稲毛海岸_JR京葉線,稲毛海岸,35.629501,140.074034
千葉みなと_JR京葉線,千葉みなと,35.606172,140.10341
蘇我_JR京葉線,蘇我,35.582065,140.130767
八王子_JR八高線,八王子,35.655555,139.338998
北八王子_JR八高線,北八王子,35.669232,139.363348
小宮_JR八高線,小宮,35.685799,139.368481
拝島_JR八高線,拝島,35.721278,139.343468
東福生_JR八高線,東福生,35.745811,139.33594
箱根ヶ崎_JR八高線,箱根ヶ崎,35.771158,139.346805
金子_JR八高線,金子,35.810822,139.328546
東飯能_JR八高線,東飯能,35.852928,139.325965
高麗川_JR八高線,高麗川,35.896328,139.33809
毛呂_JR八高線,毛呂,35.940806,139.309237
越生_JR八高線,越生,35.962559,139.299437
明覚_JR八高線,明覚,36.003309,139.288789
小川町_JR八高線,小川町,36.05903,139.260412
竹沢_JR八高線,竹沢,36.075466,139.229952
折原_JR八高線,折原,36.096296,139.195205
寄居_JR八高線,寄居,36.118013,139.194224
用土_JR八高線,用土,36.153858,139.200758
松久_JR八高線,松久,36.172938,139.182127
児玉_JR八高線,児玉,36.192624,139.13582
丹荘_JR八高線,丹荘,36.216668,139.102306
群馬藤岡_JR八高線,群馬藤岡,36.250336,139.08338
北藤岡_JR八高線,北藤岡,36.282469,139.080779
倉賀野_JR八高線,倉賀野,36.300216,139.049474
高崎_JR八高線,高崎,36.322239,139.012354
川崎_JR南武線,川崎,35.531311,139.697485
尻手_JR南武線,尻手,35.530939,139.684233
矢向_JR南武線,矢向,35.539408,139.68055
鹿島田_JR南武線,鹿島田,35.551459,139.674964
平間_JR南武線,平間,35.560564,139.671039
向河原_JR南武線,向河原,35.572891,139.66725
武蔵小杉_JR南武線,武蔵小杉,35.57669,139.65963
武蔵中原_JR南武線,武蔵中原,35.581498,139.640613
武蔵新城_JR南武線,武蔵新城,35.587369,139.629419
武蔵溝ノ口_JR南武線,武蔵溝ノ口,35.598923,139.61139
津田山_JR南武線,津田山,35.604259,139.600002
久地_JR南武線,久地,35.610363,139.592714
宿河原_JR南武線,宿河原,35.615429,139.579565
登戸_JR南武線,登戸,35.620889,139.570028
中野島_JR南武線,中野島,35.630135,139.5501
稲田堤_JR南武線,稲田堤,35.633701,139.535173
矢野口_JR南武線,矢野口,35.641305,139.520849
稲城長沼_JR南武線,稲城長沼,35.644184,139.502811
南多摩_JR南武線,南多摩,35.649249,139.489781
府中本町_JR南武線,府中本町,35.665766,139.477142
分倍河原_JR南武線,分倍河原,35.668493,139.468798
西府_JR南武線,西府,35.670912,139.457477
谷保_JR南武線,谷保,35.681377,139.446724
矢川_JR南武線,矢川,35.685079,139.431611
西国立_JR南武線,西国立,35.69375,139.423887
立川_JR南武線,立川,35.698202,139.413704
大崎_JR埼京線,大崎,35.619772,139.728439
恵比寿_JR埼京線,恵比寿,35.646684,139.71007
渋谷_JR埼京線,渋谷,35.658871,139.701238
新宿_JR埼京線,新宿,35.689729,139.700464
池袋_JR埼京線,池袋,35.730256,139.711085
板橋_JR埼京線,板橋,35.745435,139.719507
十条_JR埼京線,十条,35.760321,139.722233
赤羽_JR埼京線,赤羽,35.778026,139.720928
北赤羽_JR埼京線,北赤羽,35.787007,139.70569
浮間舟渡_JR埼京線,浮間舟渡,35.791209,139.691341
戸田公園_JR埼京線,戸田公園,35.807906,139.678203
戸田_JR埼京線,戸田,35.817665,139.669548
北戸田_JR埼京線,北戸田,35.826883,139.661201
武蔵浦和_JR埼京線,武蔵浦和,35.845422,139.646809
中浦和_JR埼京線,中浦和,35.853769,139.6375
南与野_JR埼京線,南与野,35.867456,139.631117
与野本町_JR埼京線,与野本町,35.880968,139.626075
北与野_JR埼京線,北与野,35.890678,139.628521
大宮_JR埼京線,大宮,35.906439,139.62405
上野_JR宇都宮線,上野,35.71379,139.777043
尾久_JR宇都宮線,尾久,35.74683,139.753846
赤羽_JR宇都宮線,赤羽,35.778026,139.720928
浦和_JR宇都宮線,浦和,35.858496,139.657109
さいたま新都心_JR宇都宮線,さいたま新都心,35.893867,139.633587
大宮_JR宇都宮線,大宮,35.906439,139.62405
土呂_JR宇都宮線,土呂,35.931997,139.63214
東大宮_JR宇都宮線,東大宮,35.948751,139.640291
蓮田_JR宇都宮線,蓮田,35.981272,139.653016
白岡_JR宇都宮線,白岡,36.01774,139.666826
新白岡_JR宇都宮線,新白岡,36.038732,139.67208
久喜_JR宇都宮線,久喜,36.065684,139.67727
東鷲宮_JR宇都宮線,東鷲宮,36.089428,139.67913
栗橋_JR宇都宮線,栗橋,36.136852,139.694177
古河_JR宇都宮線,古河,36.194375,139.709726
野木_JR宇都宮線,野木,36.229963,139.734729
間々田_JR宇都宮線,間々田,36.257908,139.761039
小山_JR宇都宮線,小山,36.312747,139.806241
小金井_JR宇都宮線,小金井,36.374435,139.842232
自治医大_JR宇都宮線,自治医大,36.39543,139.854524
石橋_JR宇都宮線,石橋,36.43651,139.866536
雀宮_JR宇都宮線,雀宮,36.493845,139.876811
宇都宮_JR宇都宮線,宇都宮,36.559246,139.898389
岡本_JR宇都宮線,岡本,36.598182,139.944363
宝積寺_JR宇都宮線,宝積寺,36.631703,139.979487
氏家_JR宇都宮線,氏家,36.681696,139.9621
蒲須坂_JR宇都宮線,蒲須坂,36.720727,139.950461
片岡_JR宇都宮線,片岡,36.754557,139.945665
矢板_JR宇都宮線,矢板,36.80655,139.932912
野崎_JR宇都宮線,野崎,36.843722,139.957752
西那須野_JR宇都宮線,西那須野,36.883726,139.986383
那須塩原_JR宇都宮線,那須塩原,36.931956,140.020694
黒磯_JR宇都宮線,黒磯,36.970128,140.060204
品川_JR山手線,品川,35.62876,139.738999
大崎_JR山手線,大崎,35.619772,139.728439
五反田_JR山手線,五反田,35.625974,139.723822
目黒_JR山手線,目黒,35.633923,139.715775
恵比寿_JR山手線,恵比寿,35.646684,139.71007
渋谷_JR山手線,渋谷,35.658871,139.701238
原宿_JR山手線,原宿,35.670646,139.702592
代々木_JR山手線,代々木,35.683061,139.702042
新宿_JR山手線,新宿,35.689729,139.700464
新大久保_JR山手線,新大久保,35.700875,139.700261
高田馬場_JR山手線,高田馬場,35.712677,139.703715
目白_JR山手線,目白,35.720476,139.706228
池袋_JR山手線,池袋,35.730256,139.711085
大塚_JR山手線,大塚,35.731412,139.728584
巣鴨_JR山手線,巣鴨,35.733445,139.739303
駒込_JR山手線,駒込,35.736825,139.748053
田端_JR山手線,田端,35.737781,139.761229
西日暮里_JR山手線,西日暮里,35.731954,139.766857
日暮里_JR山手線,日暮里,35.727908,139.771287
鶯谷_JR山手線,鶯谷,35.721484,139.778015
上野_JR山手線,上野,35.71379,139.777043
御徒町_JR山手線,御徒町,35.707282,139.774727
秋葉原_JR山手線,秋葉原,35.698619,139.773288
神田_JR山手線,神田,35.691173,139.770641
東京_JR山手線,東京,35.681391,139.766103
有楽町_JR山手線,有楽町,35.675441,139.763806
新橋_JR山手線,新橋,35.666195,139.758587
浜松町_JR山手線,浜松町,35.655391,139.757135
田町_JR山手線,田町,35.645737,139.747575
高輪ゲートウェイ_JR山手線,高輪ゲートウェイ,35.635476,139.740651
北千住_JR常磐線各駅停車,北千住,35.749677,139.804872
綾瀬_JR常磐線各駅停車,綾瀬,35.762222,139.825019
亀有_JR常磐線各駅停車,亀有,35.766527,139.847573
金町_JR常磐線各駅停車,金町,35.769582,139.870482
松戸_JR常磐線各駅停車,松戸,35.784472,139.900779
北松戸_JR常磐線各駅停車,北松戸,35.800459,139.911528
馬橋_JR常磐線各駅停車,馬橋,35.811683,139.917305
新松戸_JR常磐線各駅停車,新松戸,35.825467,139.921076
北小金_JR常磐線各駅停車,北小金,35.833436,139.931303
南柏_JR常磐線各駅停車,南柏,35.844655,139.954111
柏_JR常磐線各駅停車,柏,35.862316,139.971148
北柏_JR常磐線各駅停車,北柏,35.875623,139.988035
我孫子_JR常磐線各駅停車,我孫子,35.87279,140.010466
天王台_JR常磐線各駅停車,天王台,35.872558,140.04121
取手_JR常磐線各駅停車,取手,35.89553,140.063004
上野_JR常磐線快速,上野,35.71379,139.777043
日暮里_JR常磐線快速,日暮里,35.727908,139.771287
三河島_JR常磐線快速,三河島,35.733383,139.777131
南千住_JR常磐線快速,南千住,35.734033,139.7994
北千住_JR常磐線快速,北千住,35.749677,139.804872
松戸_JR常磐線快速,松戸,35.784472,139.900779
柏_JR常磐線快速,柏,35.862316,139.971148
我孫子_JR常磐線快速,我孫子,35.87279,140.010466
天王台_JR常磐線快速,天王台,35.872558,140.04121
取手_JR常磐線快速,取手,35.89553,140.063004
東京_JR東海道本線,東京,35.681391,139.766103
新橋_JR東海道本線,新橋,35.666195,139.758587
品川_JR東海道本線,品川,35.62876,139.738999
川崎_JR東海道本線,川崎,35.531311,139.697485
横浜_JR東海道本線,横浜,35.466195,139.622704
戸塚_JR東海道本線,戸塚,35.400432,139.534282
大船_JR東海道本線,大船,35.353466,139.531127
藤沢_JR東海道本線,藤沢,35.338882,139.487293
辻堂_JR東海道本線,辻堂,35.336846,139.447106
茅ヶ崎_JR東海道本線,茅ヶ崎,35.330741,139.407197
平塚_JR東海道本線,平塚,35.327647,139.349063
大磯_JR東海道本線,大磯,35.311299,139.313388
二宮_JR東海道本線,二宮,35.298644,139.256925
国府津_JR東海道本線,国府津,35.280832,139.212932
鴨宮_JR東海道本線,鴨宮,35.275744,139.180147
小田原_JR東海道本線,小田原,35.256225,139.155772
早川_JR東海道本線,早川,35.238875,139.145014
根府川_JR東海道本線,根府川,35.202455,139.138504
真鶴_JR東海道本線,真鶴,35.156837,139.132148
湯河原_JR東海道本線,湯河原,35.146178,139.102142
熱海_JR東海道本線,熱海,35.103573,139.077679
函南_JR東海道本線,函南,35.108773,138.970984
三島_JR東海道本線,三島,35.126253,138.911133
沼津_JR東海道本線,沼津,35.103011,138.860104
片浜_JR東海道本線,片浜,35.11825,138.818937
原_JR東海道本線,原,35.124915,138.793387
東田子の浦_JR東海道本線,東田子の浦,35.136255,138.745441
吉原_JR東海道本線,吉原,35.143845,138.702768
富士_JR東海道本線,富士,35.151497,138.651225
富士川_JR東海道本線,富士川,35.141119,138.618571
新蒲原_JR東海道本線,新蒲原,35.119599,138.608117
蒲原_JR東海道本線,蒲原,35.114005,138.582752
由比_JR東海道本線,由比,35.097108,138.552756
興津_JR東海道本線,興津,35.052539,138.521865
清水_JR東海道本線,清水,35.023248,138.488958
草薙_JR東海道本線,草薙,35.002854,138.442025
東静岡_JR東海道本線,東静岡,34.985256,138.413118
静岡_JR東海道本線,静岡,34.971629,138.388579
安倍川_JR東海道本線,安倍川,34.940961,138.364029
用宗_JR東海道本線,用宗,34.922512,138.36006
焼津_JR東海道本線,焼津,34.872261,138.318457
西焼津_JR東海道本線,西焼津,34.859824,138.28552
藤枝_JR東海道本線,藤枝,34.849511,138.252748
六合_JR東海道本線,六合,34.836436,138.203502
島田_JR東海道本線,島田,34.830159,138.173436
金谷_JR東海道本線,金谷,34.819049,138.125578
菊川_JR東海道本線,菊川,34.76176,138.085648
掛川_JR東海道本線,掛川,34.769463,138.014937
愛野_JR東海道本線,愛野,34.752257,137.961663
袋井_JR東海道本線,袋井,34.741377,137.92596
御厨_JR東海道本線,御厨,34.718469,137.885315
磐田_JR東海道本線,磐田,34.710132,137.852244
豊田町_JR東海道本線,豊田町,34.7121,137.82013
天竜川_JR東海道本線,天竜川,34.716994,137.77923
浜松_JR東海道本線,浜松,34.703866,137.734759
高塚_JR東海道本線,高塚,34.690425,137.681303
舞阪_JR東海道本線,舞阪,34.685701,137.626422
弁天島_JR東海道本線,弁天島,34.690125,137.603058
新居町_JR東海道本線,新居町,34.694276,137.568953
鷲津_JR東海道本線,鷲津,34.716819,137.546116
新所原_JR東海道本線,新所原,34.723205,137.484399
二川_JR東海道本線,二川,34.725809,137.438966
豊橋_JR東海道本線,豊橋,34.762734,137.382128
西小坂井_JR東海道本線,西小坂井,34.79708,137.352499
愛知御津_JR東海道本線,愛知御津,34.812624,137.316492
三河大塚_JR東海道本線,三河大塚,34.815744,137.28287
三河三谷_JR東海道本線,三河三谷,34.818546,137.247795
蒲郡_JR東海道本線,蒲郡,34.823078,137.226459
三河塩津_JR東海道本線,三河塩津,34.825295,137.201261
三ヶ根_JR東海道本線,三ヶ根,34.836449,137.176348
幸田_JR東海道本線,幸田,34.859926,137.16447
相見_JR東海道本線,相見,34.886833,137.160389
岡崎_JR東海道本線,岡崎,34.925417,137.157243
西岡崎_JR東海道本線,西岡崎,34.946572,137.123187
安城_JR東海道本線,安城,34.959986,137.08716
三河安城_JR東海道本線,三河安城,34.96968,137.060918
東刈谷_JR東海道本線,東刈谷,34.97741,137.043525
野田新町_JR東海道本線,野田新町,34.984212,137.026355
刈谷_JR東海道本線,刈谷,34.991156,137.008878
逢妻_JR東海道本線,逢妻,34.998215,136.990544
大府_JR東海道本線,大府,35.008665,136.961727
共和_JR東海道本線,共和,35.035245,136.954599
南大高_JR東海道本線,南大高,35.055403,136.948244
大高_JR東海道本線,大高,35.069244,136.940242
笠寺_JR東海道本線,笠寺,35.095113,136.926321
熱田_JR東海道本線,熱田,35.130028,136.910502
金山_JR東海道本線,金山,35.143323,136.90075
尾頭橋_JR東海道本線,尾頭橋,35.146981,136.89102
名古屋_JR東海道本線,名古屋,35.170694,136.881637
枇杷島_JR東海道本線,枇杷島,35.198681,136.861816
清洲_JR東海道本線,清洲,35.225406,136.834529
稲沢_JR東海道本線,稲沢,35.252994,136.820942
尾張一宮_JR東海道本線,尾張一宮,35.301765,136.797567
木曽川_JR東海道本線,木曽川,35.349319,136.780726
岐阜_JR東海道本線,岐阜,35.409532,136.756514
西岐阜_JR東海道本線,西岐阜,35.404664,136.72341
穂積_JR東海道本線,穂積,35.396345,136.693834
大垣_JR東海道本線,大垣,35.367096,136.618288
垂井_JR東海道本線,垂井,35.369587,136.531246
関ヶ原_JR東海道本線,関ヶ原,35.363726,136.470451
柏原_JR東海道本線,柏原,35.344592,136.402767
近江長岡_JR東海道本線,近江長岡,35.359307,136.373775
醒ヶ井_JR東海道本線,醒ヶ井,35.327664,136.345135
米原_JR東海道本線,米原,35.314657,136.289992
荒尾_JR東海道本線,荒尾,35.373454,136.583276
美濃赤坂_JR東海道本線,美濃赤坂,35.386677,136.582129
東神奈川_JR横浜線,東神奈川,35.47804,139.633466
大口_JR横浜線,大口,35.492375,139.646288
菊名_JR横浜線,菊名,35.509749,139.630147
新横浜_JR横浜線,新横浜,35.506824,139.617348
小机_JR横浜線,小机,35.508533,139.599787
鴨居_JR横浜線,鴨居,35.510955,139.56707
中山_JR横浜線,中山,35.514745,139.539692
十日市場_JR横浜線,十日市場,35.526254,139.51669
長津田_JR横浜線,長津田,35.531698,139.49468
成瀬_JR横浜線,成瀬,35.535412,139.472875
町田_JR横浜線,町田,35.542004,139.445579
古淵_JR横浜線,古淵,35.556055,139.419151
淵野辺_JR横浜線,淵野辺,35.568784,139.395075
矢部_JR横浜線,矢部,35.573275,139.386373
相模原_JR横浜線,相模原,35.58113,139.371007
橋本_JR横浜線,橋本,35.594975,139.344586
相原_JR横浜線,相原,35.60694,139.33169
八王子みなみ野_JR横浜線,八王子みなみ野,35.630664,139.330678
片倉_JR横浜線,片倉,35.639704,139.34119
八王子_JR横浜線,八王子,35.655555,139.338998
東京_JR横須賀線,東京,35.681391,139.766103
新橋_JR横須賀線,新橋,35.666195,139.758587
品川_JR横須賀線,品川,35.62876,139.738999
西大井_JR横須賀線,西大井,35.601616,139.721729
武蔵小杉_JR横須賀線,武蔵小杉,35.575965,139.663278
新川崎_JR横須賀線,新川崎,35.551784,139.671481
横浜_JR横須賀線,横浜,35.466195,139.622704
保土ヶ谷_JR横須賀線,保土ヶ谷,35.446746,139.599671
東戸塚_JR横須賀線,東戸塚,35.430353,139.556794
戸塚_JR横須賀線,戸塚,35.400432,139.534282
大船_JR横須賀線,大船,35.353466,139.531127
北鎌倉_JR横須賀線,北鎌倉,35.337198,139.545134
鎌倉_JR横須賀線,鎌倉,35.318793,139.550428
逗子_JR横須賀線,逗子,35.297392,139.578292
東逗子_JR横須賀線,東逗子,35.298781,139.601768
田浦_JR横須賀線,田浦,35.29271,139.637726
横須賀_JR横須賀線,横須賀,35.284022,139.655855
衣笠_JR横須賀線,衣笠,35.257091,139.661193
久里浜_JR横須賀線,久里浜,35.233107,139.700862
府中本町_JR武蔵野線,府中本町,35.665766,139.477142
北府中_JR武蔵野線,北府中,35.68088,139.471792
西国分寺_JR武蔵野線,西国分寺,35.699744,139.465994
新小平_JR武蔵野線,新小平,35.73128,139.470745
新秋津_JR武蔵野線,新秋津,35.778331,139.493592
東所沢_JR武蔵野線,東所沢,35.79461,139.513878
新座_JR武蔵野線,新座,35.80381,139.556328
北朝霞_JR武蔵野線,北朝霞,35.815475,139.587322
西浦和_JR武蔵野線,西浦和,35.844139,139.627707
武蔵浦和_JR武蔵野線,武蔵浦和,35.846047,139.647974
南浦和_JR武蔵野線,南浦和,35.847648,139.669125
東浦和_JR武蔵野線,東浦和,35.864079,139.704627
東川口_JR武蔵野線,東川口,35.875246,139.744087
南越谷_JR武蔵野線,南越谷,35.876106,139.790499
越谷レイクタウン_JR武蔵野線,越谷レイクタウン,35.87622,139.820219
吉川_JR武蔵野線,吉川,35.87662,139.843162
吉川美南_JR武蔵野線,吉川美南,35.868056,139.858167
新三郷_JR武蔵野線,新三郷,35.858667,139.869341
三郷_JR武蔵野線,三郷,35.845004,139.886341
南流山_JR武蔵野線,南流山,35.838035,139.903865
新松戸_JR武蔵野線,新松戸,35.825467,139.921076
新八柱_JR武蔵野線,新八柱,35.792013,139.938393
東松戸_JR武蔵野線,東松戸,35.770611,139.943848
市川大野_JR武蔵野線,市川大野,35.755432,139.951227
船橋法典_JR武蔵野線,船橋法典,35.730435,139.966771
西船橋_JR武蔵野線,西船橋,35.707283,139.959536
大宮_JR湘南新宿ライン,大宮,35.906439,139.62405
浦和_JR湘南新宿ライン,浦和,35.858496,139.657109
赤羽_JR湘南新宿ライン,赤羽,35.778026,139.720928
池袋_JR湘南新宿ライン,池袋,35.730256,139.711085
新宿_JR湘南新宿ライン,新宿,35.689729,139.700464
渋谷_JR湘南新宿ライン,渋谷,35.658871,139.701238
恵比寿_JR湘南新宿ライン,恵比寿,35.646684,139.71007
大崎_JR湘南新宿ライン,大崎,35.619772,139.728439
西大井_JR湘南新宿ライン,西大井,35.601616,139.721729
武蔵小杉_JR湘南新宿ライン,武蔵小杉,35.57669,139.65963
新川崎_JR湘南新宿ライン,新川崎,35.551784,139.671481
横浜_JR湘南新宿ライン,横浜,35.466195,139.622704
保土ヶ谷_JR湘南新宿ライン,保土ヶ谷,35.446746,139.599671
東戸塚_JR湘南新宿ライン,東戸塚,35.430353,139.556794
戸塚_JR湘南新宿ライン,戸塚,35.400432,139.534282
大船_JR湘南新宿ライン,大船,35.353466,139.531127
三鷹_JR総武線,三鷹,35.702683,139.560325
吉祥寺_JR総武線,吉祥寺,35.703119,139.579765
西荻窪_JR総武線,西荻窪,35.703842,139.599361
荻窪_JR総武線,荻窪,35.704523,139.620109
阿佐ケ谷_JR総武線,阿佐ケ谷,35.704818,139.635868
高円寺_JR総武線,高円寺,35.705327,139.649664
中野_JR総武線,中野,35.705765,139.665835
東中野_JR総武線,東中野,35.706529,139.684436
大久保_JR総武線,大久保,35.700784,139.69732
新宿_JR総武線,新宿,35.689729,139.700464
代々木_JR総武線,代々木,35.683061,139.702042
千駄ケ谷_JR総武線,千駄ケ谷,35.681231,139.711644
信濃町_JR総武線,信濃町,35.680031,139.720729
四ツ谷_JR総武線,四ツ谷,35.686041,139.730644
市ヶ谷_JR総武線,市ヶ谷,35.692594,139.735794
飯田橋_JR総武線,飯田橋,35.701835,139.745143
水道橋_JR総武線,水道橋,35.702039,139.754312
御茶ノ水_JR総武線,御茶ノ水,35.699604,139.764955
秋葉原_JR総武線,秋葉原,35.698619,139.773288
浅草橋_JR総武線,浅草橋,35.697403,139.784427
両国_JR総武線,両国,35.69579,139.793334
錦糸町_JR総武線,錦糸町,35.696802,139.814136
亀戸_JR総武線,亀戸,35.697345,139.826262
平井_JR総武線,平井,35.70643,139.842181
新小岩_JR総武線,新小岩,35.716903,139.857777
小岩_JR総武線,小岩,35.733207,139.881755
市川_JR総武線,市川,35.728903,139.908142
本八幡_JR総武線,本八幡,35.720898,139.92741
下総中山_JR総武線,下総中山,35.714276,139.943092
西船橋_JR総武線,西船橋,35.707283,139.959536
船橋_JR総武線,船橋,35.701865,139.984707
東船橋_JR総武線,東船橋,35.699811,140.00393
津田沼_JR総武線,津田沼,35.691367,140.020179
幕張本郷_JR総武線,幕張本郷,35.672664,140.042241
幕張_JR総武線,幕張,35.6594,140.0579
新検見川_JR総武線,新検見川,35.65169,140.073025
稲毛_JR総武線,稲毛,35.637264,140.09256
西千葉_JR総武線,西千葉,35.622639,140.103337
千葉_JR総武線,千葉,35.613425,140.112837
東京_JR総武線快速,東京,35.681391,139.766103
新日本橋_JR総武線快速,新日本橋,35.688687,139.77323
馬喰町_JR総武線快速,馬喰町,35.693365,139.78238
錦糸町_JR総武線快速,錦糸町,35.696802,139.814136
新小岩_JR総武線快速,新小岩,35.716903,139.857777
市川_JR総武線快速,市川,35.728903,139.908142
船橋_JR総武線快速,船橋,35.701865,139.984707
津田沼_JR総武線快速,津田沼,35.691367,140.020179
稲毛_JR総武線快速,稲毛,35.637264,140.09256
千葉_JR総武線快速,千葉,35.613425,140.112837
立川_JR青梅線,立川,35.698202,139.413704
西立川_JR青梅線,西立川,35.703526,139.393556
東中神_JR青梅線,東中神,35.706337,139.384529
中神_JR青梅線,中神,35.709058,139.375816
昭島_JR青梅線,昭島,35.713305,139.361564
拝島_JR青梅線,拝島,35.721278,139.343468
牛浜_JR青梅線,牛浜,35.734547,139.333677
福生_JR青梅線,福生,35.742456,139.327763
羽村_JR青梅線,羽村,35.758073,139.316188
小作_JR青梅線,小作,35.776048,139.302233
河辺_JR青梅線,河辺,35.78473,139.284032
東青梅_JR青梅線,東青梅,35.789768,139.272841
青梅_JR青梅線,青梅,35.790512,139.258096
宮ノ平_JR青梅線,宮ノ平,35.787545,139.237289
日向和田_JR青梅線,日向和田,35.788665,139.229515
石神前_JR青梅線,石神前,35.79683,139.225096
二俣尾_JR青梅線,二俣尾,35.803945,139.216161
軍畑_JR青梅線,軍畑,35.807382,139.207431
沢井_JR青梅線,沢井,35.80594,139.193324
御嶽_JR青梅線,御嶽,35.801468,139.182589
川井_JR青梅線,川井,35.813697,139.16429
古里_JR青梅線,古里,35.816247,139.152102
鳩ノ巣_JR青梅線,鳩ノ巣,35.815127,139.128932
白丸_JR青梅線,白丸,35.811735,139.114861
奥多摩_JR青梅線,奥多摩,35.809357,139.096961
上野_JR高崎線,上野,35.71379,139.777043
尾久_JR高崎線,尾久,35.74683,139.753846
赤羽_JR高崎線,赤羽,35.778026,139.720928
浦和_JR高崎線,浦和,35.858496,139.657109
さいたま新都心_JR高崎線,さいたま新都心,35.893867,139.633587
大宮_JR高崎線,大宮,35.906439,139.62405
宮原_JR高崎線,宮原,35.940256,139.609455
上尾_JR高崎線,上尾,35.973522,139.588434
北上尾_JR高崎線,北上尾,35.985632,139.577223
桶川_JR高崎線,桶川,35.998375,139.564274
北本_JR高崎線,北本,36.032112,139.533591
鴻巣_JR高崎線,鴻巣,36.0592,139.509552
北鴻巣_JR高崎線,北鴻巣,36.085529,139.476894
吹上_JR高崎線,吹上,36.103062,139.45312
行田_JR高崎線,行田,36.113879,139.432103
熊谷_JR高崎線,熊谷,36.139627,139.389528
籠原_JR高崎線,籠原,36.17448,139.330199
深谷_JR高崎線,深谷,36.191343,139.28127
岡部_JR高崎線,岡部,36.205645,139.237622
本庄_JR高崎線,本庄,36.236229,139.188299
神保原_JR高崎線,神保原,36.25359,139.149172
新町_JR高崎線,新町,36.272984,139.105457
倉賀野_JR高崎線,倉賀野,36.300216,139.049474
高崎_JR高崎線,高崎,36.322239,139.012354
秋葉原_つくばエクスプレス線,秋葉原,35.698889,139.774273
新御徒町_つくばエクスプレス線,新御徒町,35.707045,139.781958
浅草_つくばエクスプレス線,浅草,35.713817,139.792389
南千住_つくばエクスプレス線,南千住,35.732413,139.798783
北千住_つくばエクスプレス線,北千住,35.74949,139.805092
青井_つくばエクスプレス線,青井,35.771782,139.82038
六町_つくばエクスプレス線,六町,35.784963,139.821816
八潮_つくばエクスプレス線,八潮,35.807905,139.845017
三郷中央_つくばエクスプレス線,三郷中央,35.824514,139.878344
南流山_つくばエクスプレス線,南流山,35.83869,139.903271
流山セントラルパーク_つくばエクスプレス線,流山セントラルパーク,35.854552,139.915223
流山おおたかの森_つくばエクスプレス線,流山おおたかの森,35.871799,139.925044
柏の葉キャンパス_つくばエクスプレス線,柏の葉キャンパス,35.89308,139.952454
柏たなか_つくばエクスプレス線,柏たなか,35.9109,139.957533
守谷_つくばエクスプレス線,守谷,35.950626,139.992209
みらい平_つくばエクスプレス線,みらい平,35.99514,140.038555
みどりの_つくばエクスプレス線,みどりの,36.03025,140.056276
万博記念公園_つくばエクスプレス線,万博記念公園,36.05841,140.059256
研究学園_つくばエクスプレス線,研究学園,36.0821,140.082256
つくば_つくばエクスプレス線,つくば,36.0825,140.110604
東京_上越新幹線,東京,35.681391,139.766103
上野_上越新幹線,上野,35.71379,139.777043
大宮_上越新幹線,大宮,35.906439,139.62405
熊谷_上越新幹線,熊谷,36.139627,139.389528
本庄早稲田_上越新幹線,本庄早稲田,36.218758,139.179682
高崎_上越新幹線,高崎,36.322239,139.012354
上毛高原_上越新幹線,上毛高原,36.69317,138.977572
越後湯沢_上越新幹線,越後湯沢,36.935799,138.809227
浦佐_上越新幹線,浦佐,37.167488,138.922798
長岡_上越新幹線,長岡,37.447787,138.853927
燕三条_上越新幹線,燕三条,37.648824,138.939274
新潟_上越新幹線,新潟,37.912299,139.060869
押上_京成押上線,押上,35.710702,139.812935
京成曳舟_京成押上線,京成曳舟,35.718441,139.820012
八広_京成押上線,八広,35.727687,139.828738
四ツ木_京成押上線,四ツ木,35.731962,139.834918
京成立石_京成押上線,京成立石,35.738281,139.848558
青砥_京成押上線,青砥,35.745883,139.856292
京成高砂_京成押上線,京成高砂,35.750932,139.866875
京成上野_京成本線,京成上野,35.711232,139.773571
日暮里_京成本線,日暮里,35.727908,139.771287
新三河島_京成本線,新三河島,35.73714,139.773834
町屋_京成本線,町屋,35.742354,139.781499
千住大橋_京成本線,千住大橋,35.74243,139.796934
京成関屋_京成本線,京成関屋,35.744008,139.81183
堀切菖蒲園_京成本線,堀切菖蒲園,35.747649,139.827545
お花茶屋_京成本線,お花茶屋,35.747585,139.83988
青砥_京成本線,青砥,35.745883,139.856292
京成高砂_京成本線,京成高砂,35.750932,139.866875
京成小岩_京成本線,京成小岩,35.742158,139.88371
江戸川_京成本線,江戸川,35.737723,139.896226
国府台_京成本線,国府台,35.736301,139.90322
市川真間_京成本線,市川真間,35.73121,139.911717
菅野_京成本線,菅野,35.728272,139.919413
京成八幡_京成本線,京成八幡,35.723811,139.92816
鬼越_京成本線,鬼越,35.719776,139.937932
京成中山_京成本線,京成中山,35.716998,139.944203
東中山_京成本線,東中山,35.714385,139.952683
京成西船_京成本線,京成西船,35.711627,139.958863
海神_京成本線,海神,35.705888,139.971888
京成船橋_京成本線,京成船橋,35.700161,139.985451
大神宮下_京成本線,大神宮下,35.693945,139.991431
船橋競馬場_京成本線,船橋競馬場,35.689606,139.997998
谷津_京成本線,谷津,35.685257,140.007658
京成津田沼_京成本線,京成津田沼,35.68364,140.024823
京成大久保_京成本線,京成大久保,35.686016,140.048629
実籾_京成本線,実籾,35.686852,140.068289
八千代台_京成本線,八千代台,35.701465,140.090942
京成大和田_京成本線,京成大和田,35.712309,140.108578
勝田台_京成本線,勝田台,35.715445,140.126053
志津_京成本線,志津,35.717406,140.144982
ユーカリが丘_京成本線,ユーカリが丘,35.721801,140.156354
京成臼井_京成本線,京成臼井,35.730017,140.180796
京成佐倉_京成本線,京成佐倉,35.725205,140.229633
大佐倉_京成本線,大佐倉,35.729908,140.25079
京成酒々井_京成本線,京成酒々井,35.736867,140.270132
宗吾参道_京成本線,宗吾参道,35.752669,140.280975
公津の杜_京成本線,公津の杜,35.760446,140.294904
京成成田_京成本線,京成成田,35.776308,140.315473
空港第2ビル_京成本線,空港第2ビル,35.773693,140.387163
成田空港_京成本線,成田空港,35.763983,140.384644
京成高砂_京成金町線,京成高砂,35.750932,139.866875
柴又_京成金町線,柴又,35.756323,139.875188
京成金町_京成金町線,京成金町,35.768471,139.870387
京成高砂_京成成田空港線,京成高砂,35.750932,139.866875
東松戸_京成成田空港線,東松戸,35.769954,139.942957
新鎌ヶ谷_京成成田空港線,新鎌ヶ谷,35.779481,139.998361
千葉ニュータウン中央_京成成田空港線,千葉ニュータウン中央,35.800175,140.116159
印旛日本医大_京成成田空港線,印旛日本医大,35.787512,140.203112
成田湯川_京成成田空港線,成田湯川,35.799115,140.291596
空港第2ビル_京成成田空港線,空港第2ビル,35.773693,140.387163
成田空港_京成成田空港線,成田空港,35.763983,140.384644
泉岳寺_京浜急行本線,泉岳寺,35.638692,139.74002
品川_京浜急行本線,品川,35.628284,139.73809
北品川_京浜急行本線,北品川,35.622458,139.739191
新馬場_京浜急行本線,新馬場,35.61762,139.741366
青物横丁_京浜急行本線,青物横丁,35.609351,139.742958
鮫洲_京浜急行本線,鮫洲,35.604977,139.742227
立会川_京浜急行本線,立会川,35.598489,139.738886
大森海岸_京浜急行本線,大森海岸,35.587576,139.73544
平和島_京浜急行本線,平和島,35.57868,139.73491
大森町_京浜急行本線,大森町,35.572431,139.732027
梅屋敷_京浜急行本線,梅屋敷,35.566873,139.728266
京急蒲田_京浜急行本線,京急蒲田,35.560796,139.723681
雑色_京浜急行本線,雑色,35.549725,139.715005
六郷土手_京浜急行本線,六郷土手,35.540577,139.7076
京急川崎_京浜急行本線,京急川崎,35.53285,139.700893
八丁畷_京浜急行本線,八丁畷,35.523054,139.691346
鶴見市場_京浜急行本線,鶴見市場,35.517594,139.68642
京急鶴見_京浜急行本線,京急鶴見,35.507032,139.677743
花月総持寺_京浜急行本線,花月総持寺,35.500358,139.672813
生麦_京浜急行本線,生麦,35.4956,139.6673
京急新子安_京浜急行本線,京急新子安,35.487242,139.655848
子安_京浜急行本線,子安,35.484556,139.644965
神奈川新町_京浜急行本線,神奈川新町,35.481559,139.640152
京急東神奈川_京浜急行本線,京急東神奈川,35.477412,139.634669
神奈川_京浜急行本線,神奈川,35.471304,139.627364
横浜_京浜急行本線,横浜,35.466066,139.623055
戸部_京浜急行本線,戸部,35.456631,139.61956
日ノ出町_京浜急行本線,日ノ出町,35.445524,139.626696
黄金町_京浜急行本線,黄金町,35.439694,139.62246
南太田_京浜急行本線,南太田,35.436923,139.613408
井土ヶ谷_京浜急行本線,井土ヶ谷,35.433895,139.60061
弘明寺_京浜急行本線,弘明寺,35.42437,139.596791
上大岡_京浜急行本線,上大岡,35.409418,139.596552
屏風浦_京浜急行本線,屏風浦,35.394176,139.610387
杉田_京浜急行本線,杉田,35.383796,139.615734
京急富岡_京浜急行本線,京急富岡,35.366743,139.629772
能見台_京浜急行本線,能見台,35.360528,139.629233
金沢文庫_京浜急行本線,金沢文庫,35.342966,139.621606
金沢八景_京浜急行本線,金沢八景,35.331223,139.62018
追浜_京浜急行本線,追浜,35.315461,139.624905
京急田浦_京浜急行本線,京急田浦,35.300892,139.625252
安針塚_京浜急行本線,安針塚,35.286641,139.64292
逸見_京浜急行本線,逸見,35.28048,139.653149
汐入_京浜急行本線,汐入,35.280241,139.662443
横須賀中央_京浜急行本線,横須賀中央,35.27858,139.670217
県立大学_京浜急行本線,県立大学,35.269731,139.677033
堀ノ内_京浜急行本線,堀ノ内,35.26322,139.686932
京急大津_京浜急行本線,京急大津,35.261068,139.695334
馬堀海岸_京浜急行本線,馬堀海岸,35.259651,139.707328
浦賀_京浜急行本線,浦賀,35.250933,139.714999
京急蒲田_京浜急行空港線,京急蒲田,35.560796,139.723681
糀谷_京浜急行空港線,糀谷,35.5545,139.72962
大鳥居_京浜急行空港線,大鳥居,35.552531,139.739356
穴守稲荷_京浜急行空港線,穴守稲荷,35.550326,139.746669
天空橋_京浜急行空港線,天空橋,35.548908,139.75423
羽田空港第3ターミナル_京浜急行空港線,羽田空港第3ターミナル,35.544676,139.768968
羽田空港第1・第2ターミナル_京浜急行空港線,羽田空港第1・第2ターミナル,35.549809,139.785962
新宿_京王線,新宿,35.690163,139.699187
笹塚_京王線,笹塚,35.673758,139.667251
代田橋_京王線,代田橋,35.671092,139.659413
明大前_京王線,明大前,35.668758,139.650352
下高井戸_京王線,下高井戸,35.66615,139.641372
桜上水_京王線,桜上水,35.66768,139.63129
上北沢_京王線,上北沢,35.668857,139.62329
八幡山_京王線,八幡山,35.669982,139.614927
芦花公園_京王線,芦花公園,35.670479,139.608247
千歳烏山_京王線,千歳烏山,35.667921,139.60067
仙川_京王線,仙川,35.662257,139.584908
つつじヶ丘_京王線,つつじヶ丘,35.657936,139.575103
柴崎_京王線,柴崎,35.653997,139.56658
国領_京王線,国領,35.650087,139.558036
布田_京王線,布田,35.649904,139.551557
調布_京王線,調布,35.652181,139.543988
西調布_京王線,西調布,35.657169,139.529822
飛田給_京王線,飛田給,35.660121,139.523666
武蔵野台_京王線,武蔵野台,35.664159,139.511289
多磨霊園_京王線,多磨霊園,35.666197,139.502615
東府中_京王線,東府中,35.668766,139.495257
府中_京王線,府中,35.672245,139.4799
分倍河原_京王線,分倍河原,35.668493,139.468798
中河原_京王線,中河原,35.659549,139.457602
聖蹟桜ヶ丘_京王線,聖蹟桜ヶ丘,35.650814,139.446979
百草園_京王線,百草園,35.657362,139.431285
高幡不動_京王線,高幡不動,35.662361,139.412953
南平_京王線,南平,35.654559,139.392008
平山城址公園_京王線,平山城址公園,35.647371,139.379926
長沼_京王線,長沼,35.642788,139.365849
北野_京王線,北野,35.644479,139.354489
京王八王子_京王線,京王八王子,35.657416,139.343851
新線新宿_京王新線,新線新宿,35.68869,139.698812
初台_京王新線,初台,35.68123,139.686354
幡ヶ谷_京王新線,幡ヶ谷,35.677061,139.676183
笹塚_京王新線,笹塚,35.673758,139.667251
渋谷_京王井の頭線,渋谷,35.6587,139.700872
神泉_京王井の頭線,神泉,35.657244,139.693579
駒場東大前_京王井の頭線,駒場東大前,35.65868,139.684308
池ノ上_京王井の頭線,池ノ上,35.660402,139.67344
下北沢_京王井の頭線,下北沢,35.661539,139.66691
新代田_京王井の頭線,新代田,35.662593,139.660524
東松原_京王井の頭線,東松原,35.662634,139.655535
明大前_京王井の頭線,明大前,35.668758,139.650352
永福町_京王井の頭線,永福町,35.67629,139.642733
西永福_京王井の頭線,西永福,35.678918,139.634936
浜田山_京王井の頭線,浜田山,35.681603,139.627528
高井戸_京王井の頭線,高井戸,35.683253,139.615115
富士見ヶ丘_京王井の頭線,富士見ヶ丘,35.684805,139.607072
久我山_京王井の頭線,久我山,35.688138,139.599211
三鷹台_京王井の頭線,三鷹台,35.692046,139.589298
井の頭公園_京王井の頭線,井の頭公園,35.697304,139.583112
吉祥寺_京王井の頭線,吉祥寺,35.702291,139.580306
調布_京王相模原線,調布,35.652181,139.543988
京王多摩川_京王相模原線,京王多摩川,35.644499,139.536606
京王稲田堤_京王相模原線,京王稲田堤,35.633895,139.531099
京王よみうりランド_京王相模原線,京王よみうりランド,35.632934,139.517597
稲城_京王相模原線,稲城,35.636166,139.500398
若葉台_京王相模原線,若葉台,35.619325,139.472189
京王永山_京王相模原線,京王永山,35.630102,139.448204
京王多摩センター_京王相模原線,京王多摩センター,35.62518,139.42402
京王堀之内_京王相模原線,京王堀之内,35.624438,139.400314
南大沢_京王相模原線,南大沢,35.6141,139.3798
多摩境_京王相模原線,多摩境,35.601826,139.366987
橋本_京王相模原線,橋本,35.595518,139.343226
北野_京王高尾線,北野,35.644479,139.354489
京王片倉_京王高尾線,京王片倉,35.644343,139.337035
山田_京王高尾線,山田,35.644411,139.321082
めじろ台_京王高尾線,めじろ台,35.643601,139.308446
狭間_京王高尾線,狭間,35.640637,139.293808
高尾_京王高尾線,高尾,35.641645,139.281551
高尾山口_京王高尾線,高尾山口,35.632377,139.269856
高幡不動_京王動物園線,高幡不動,35.662361,139.412953
多摩動物公園_京王動物園線,多摩動物公園,35.649215,139.404627
東府中_京王競馬場線,東府中,35.668766,139.495257
府中競馬正門前_京王競馬場線,府中競馬正門前,35.668288,139.485019
京成高砂_北総鉄道,京成高砂,35.750932,139.866875
新柴又_北総鉄道,新柴又,35.75101,139.879376
矢切_北総鉄道,矢切,35.757503,139.899742
北国分_北総鉄道,北国分,35.762916,139.914252
秋山_北総鉄道,秋山,35.765299,139.930723
東松戸_北総鉄道,東松戸,35.769954,139.942957
松飛台_北総鉄道,松飛台,35.775377,139.957739
大町_北総鉄道,大町,35.775103,139.973567
新鎌ヶ谷_北総鉄道,新鎌ヶ谷,35.779481,139.998361
西白井_北総鉄道,西白井,35.784364,140.031545
白井_北総鉄道,白井,35.784723,140.0541
小室_北総鉄道,小室,35.787004,140.076073
千葉ニュータウン中央_北総鉄道,千葉ニュータウン中央,35.800175,140.116159
印西牧の原_北総鉄道,印西牧の原,35.803608,140.166911
印旛日本医大_北総鉄道,印旛日本医大,35.787512,140.203112
赤羽岩淵_埼玉高速鉄道,赤羽岩淵,35.783417,139.722103
川口元郷_埼玉高速鉄道,川口元郷,35.800187,139.730043
南鳩ヶ谷_埼玉高速鉄道,南鳩ヶ谷,35.816839,139.736059
鳩ヶ谷_埼玉高速鉄道,鳩ヶ谷,35.830859,139.735967
新井宿_埼玉高速鉄道,新井宿,35.842974,139.737908
戸塚安行_埼玉高速鉄道,戸塚安行,35.858873,139.753689
東川口_埼玉高速鉄道,東川口,35.876211,139.74398
浦和美園_埼玉高速鉄道,浦和美園,35.893677,139.72779
上北台_多摩モノレール,上北台,35.745824,139.415822
桜街道_多摩モノレール,桜街道,35.739,139.416653
玉川上水_多摩モノレール,玉川上水,35.73223,139.417866
砂川七番_多摩モノレール,砂川七番,35.723319,139.418097
泉体育館_多摩モノレール,泉体育館,35.718775,139.419525
立飛_多摩モノレール,立飛,35.714717,139.417387
高松_多摩モノレール,高松,35.710158,139.413242
立川北_多摩モノレール,立川北,35.699502,139.41254
立川南_多摩モノレール,立川南,35.696077,139.412546
柴崎体育館_多摩モノレール,柴崎体育館,35.689475,139.409191
甲州街道_多摩モノレール,甲州街道,35.678262,139.409191
万願寺_多摩モノレール,万願寺,35.671249,139.420079
高幡不動_多摩モノレール,高幡不動,35.66148,139.415184
程久保_多摩モノレール,程久保,35.655093,139.410698
多摩動物公園_多摩モノレール,多摩動物公園,35.648666,139.403672
中央大学・明星大学_多摩モノレール,中央大学・明星大学,35.64197,139.408672
大塚・帝京大学_多摩モノレール,大塚・帝京大学,35.636878,139.416461
松が谷_多摩モノレール,松が谷,35.63169,139.422201
多摩センター_多摩モノレール,多摩センター,35.623724,139.422782
新百合ヶ丘_小田急多摩線,新百合ヶ丘,35.603705,139.507608
五月台_小田急多摩線,五月台,35.600174,139.493542
栗平_小田急多摩線,栗平,35.605731,139.481298
黒川_小田急多摩線,黒川,35.613203,139.470731
はるひ野_小田急多摩線,はるひ野,35.618885,139.464534
小田急永山_小田急多摩線,小田急永山,35.629972,139.447943
小田急多摩センター_小田急多摩線,小田急多摩センター,35.624902,139.424298
唐木田_小田急多摩線,唐木田,35.616672,139.411622
新宿_小田急小田原線,新宿,35.691435,139.699574
南新宿_小田急小田原線,南新宿,35.683483,139.69867
参宮橋_小田急小田原線,参宮橋,35.678586,139.693568
代々木八幡_小田急小田原線,代々木八幡,35.669715,139.688913
代々木上原_小田急小田原線,代々木上原,35.669159,139.680153
東北沢_小田急小田原線,東北沢,35.665379,139.673014
下北沢_小田急小田原線,下北沢,35.661655,139.667516
世田谷代田_小田急小田原線,世田谷代田,35.65834,139.661557
梅ヶ丘_小田急小田原線,梅ヶ丘,35.656024,139.653628
豪徳寺_小田急小田原線,豪徳寺,35.653807,139.647381
経堂_小田急小田原線,経堂,35.650991,139.635993
千歳船橋_小田急小田原線,千歳船橋,35.647616,139.624544
祖師ヶ谷大蔵_小田急小田原線,祖師ヶ谷大蔵,35.643236,139.609659
成城学園前_小田急小田原線,成城学園前,35.640114,139.598958
喜多見_小田急小田原線,喜多見,35.636697,139.587445
狛江_小田急小田原線,狛江,35.632001,139.577127
和泉多摩川_小田急小田原線,和泉多摩川,35.627349,139.573695
登戸_小田急小田原線,登戸,35.62115,139.569449
向ヶ丘遊園_小田急小田原線,向ヶ丘遊園,35.617273,139.564719
生田_小田急小田原線,生田,35.614954,139.542024
読売ランド前_小田急小田原線,読売ランド前,35.614723,139.527903
百合ヶ丘_小田急小田原線,百合ヶ丘,35.60903,139.516121
新百合ヶ丘_小田急小田原線,新百合ヶ丘,35.603705,139.507608
柿生_小田急小田原線,柿生,35.589597,139.497614
鶴川_小田急小田原線,鶴川,35.583077,139.481759
玉川学園前_小田急小田原線,玉川学園前,35.563486,139.463388
町田_小田急小田原線,町田,35.544222,139.445236
相模大野_小田急小田原線,相模大野,35.532208,139.437836
小田急相模原_小田急小田原線,小田急相模原,35.515134,139.422571
相武台前_小田急小田原線,相武台前,35.499294,139.408509
座間_小田急小田原線,座間,35.480913,139.399899
海老名_小田急小田原線,海老名,35.452709,139.390905
厚木_小田急小田原線,厚木,35.443081,139.377896
本厚木_小田急小田原線,本厚木,35.439338,139.364261
愛甲石田_小田急小田原線,愛甲石田,35.417634,139.344098
伊勢原_小田急小田原線,伊勢原,35.396081,139.313768
鶴巻温泉_小田急小田原線,鶴巻温泉,35.381131,139.277813
東海大学前_小田急小田原線,東海大学前,35.373151,139.271236
秦野_小田急小田原線,秦野,35.370075,139.226009
渋沢_小田急小田原線,渋沢,35.374032,139.184405
新松田_小田急小田原線,新松田,35.345082,139.139848
開成_小田急小田原線,開成,35.326532,139.135785
栢山_小田急小田原線,栢山,35.310679,139.14258
富水_小田急小田原線,富水,35.296759,139.145166
螢田_小田急小田原線,螢田,35.285055,139.152036
足柄_小田急小田原線,足柄,35.271763,139.15447
小田原_小田急小田原線,小田原,35.256229,139.155396
滝本_御岳登山鉄道,滝本,35.796035,139.161383
御岳山_御岳登山鉄道,御岳山,35.789685,139.153594
新橋_新交通ゆりかもめ,新橋,35.665503,139.759644
汐留_新交通ゆりかもめ,汐留,35.662871,139.759985
竹芝_新交通ゆりかもめ,竹芝,35.654099,139.762037
日の出_新交通ゆりかもめ,日の出,35.649136,139.75906
芝浦ふ頭_新交通ゆりかもめ,芝浦ふ頭,35.641773,139.757852
お台場海浜公園_新交通ゆりかもめ,お台場海浜公園,35.629813,139.778607
台場_新交通ゆりかもめ,台場,35.625908,139.771435
東京国際クルーズターミナル_新交通ゆりかもめ,東京国際クルーズターミナル,35.621462,139.773157
テレコムセンター_新交通ゆりかもめ,テレコムセンター,35.617593,139.779327
青海_新交通ゆりかもめ,青海,35.62467,139.781132
東京ビッグサイト_新交通ゆりかもめ,東京ビッグサイト,35.630158,139.791228
有明_新交通ゆりかもめ,有明,35.634596,139.793269
有明テニスの森_新交通ゆりかもめ,有明テニスの森,35.639964,139.78888
市場前_新交通ゆりかもめ,市場前,35.645684,139.78564
新豊洲_新交通ゆりかもめ,新豊洲,35.648718,139.789996
豊洲_新交通ゆりかもめ,豊洲,35.653792,139.795414
新木場_東京りんかい線,新木場,35.646172,139.827402
東雲_東京りんかい線,東雲,35.640987,139.804395
国際展示場_東京りんかい線,国際展示場,35.63441,139.791617
東京テレポート_東京りんかい線,東京テレポート,35.62753,139.778896
天王洲アイル_東京りんかい線,天王洲アイル,35.620562,139.750793
品川シーサイド_東京りんかい線,品川シーサイド,35.608524,139.749549
大井町_東京りんかい線,大井町,35.607535,139.735025
大崎_東京りんかい線,大崎,35.619772,139.728439
中野坂上_東京メトロ丸ノ内分岐線,中野坂上,35.69792,139.68291
中野新橋_東京メトロ丸ノ内分岐線,中野新橋,35.692123,139.673997
中野富士見町_東京メトロ丸ノ内分岐線,中野富士見町,35.690514,139.666933
方南町_東京メトロ丸ノ内分岐線,方南町,35.683496,139.656498
池袋_東京メトロ丸ノ内線,池袋,35.730256,139.711086
新大塚_東京メトロ丸ノ内線,新大塚,35.72569,139.729971
茗荷谷_東京メトロ丸ノ内線,茗荷谷,35.716989,139.737184
後楽園_東京メトロ丸ノ内線,後楽園,35.707898,139.751864
本郷三丁目_東京メトロ丸ノ内線,本郷三丁目,35.706671,139.759914
御茶ノ水_東京メトロ丸ノ内線,御茶ノ水,35.700614,139.763952
淡路町_東京メトロ丸ノ内線,淡路町,35.695434,139.767575
大手町_東京メトロ丸ノ内線,大手町,35.686564,139.7662
東京_東京メトロ丸ノ内線,東京,35.681753,139.764708
銀座_東京メトロ丸ノ内線,銀座,35.671989,139.763965
霞ケ関_東京メトロ丸ノ内線,霞ケ関,35.673838,139.750899
国会議事堂前_東京メトロ丸ノ内線,国会議事堂前,35.67393,139.745219
赤坂見附_東京メトロ丸ノ内線,赤坂見附,35.677021,139.737047
四ツ谷_東京メトロ丸ノ内線,四ツ谷,35.684586,139.729947
四谷三丁目_東京メトロ丸ノ内線,四谷三丁目,35.687958,139.720103
新宿御苑前_東京メトロ丸ノ内線,新宿御苑前,35.688588,139.71069
新宿三丁目_東京メトロ丸ノ内線,新宿三丁目,35.690847,139.704895
新宿_東京メトロ丸ノ内線,新宿,35.69235,139.700711
西新宿_東京メトロ丸ノ内線,西新宿,35.694298,139.692778
中野坂上_東京メトロ丸ノ内線,中野坂上,35.69792,139.68291
新中野_東京メトロ丸ノ内線,新中野,35.697491,139.66903
東高円寺_東京メトロ丸ノ内線,東高円寺,35.697802,139.657822
新高円寺_東京メトロ丸ノ内線,新高円寺,35.697985,139.648068
南阿佐ヶ谷_東京メトロ丸ノ内線,南阿佐ヶ谷,35.699624,139.63576
荻窪_東京メトロ丸ノ内線,荻窪,35.704304,139.620116
北綾瀬_東京メトロ千代田線,北綾瀬,35.777117,139.832035
綾瀬_東京メトロ千代田線,綾瀬,35.762222,139.825019
北千住_東京メトロ千代田線,北千住,35.748916,139.804276
町屋_東京メトロ千代田線,町屋,35.742733,139.780501
西日暮里_東京メトロ千代田線,西日暮里,35.732257,139.766511
千駄木_東京メトロ千代田線,千駄木,35.725549,139.763243
根津_東京メトロ千代田線,根津,35.7174,139.765655
湯島_東京メトロ千代田線,湯島,35.708243,139.769916
新御茶ノ水_東京メトロ千代田線,新御茶ノ水,35.698072,139.766014
大手町_東京メトロ千代田線,大手町,35.686154,139.763399
二重橋前_東京メトロ千代田線,二重橋前,35.681071,139.761948
日比谷_東京メトロ千代田線,日比谷,35.674241,139.758732
霞ケ関_東京メトロ千代田線,霞ケ関,35.673838,139.750899
国会議事堂前_東京メトロ千代田線,国会議事堂前,35.67393,139.745219
赤坂_東京メトロ千代田線,赤坂,35.67323,139.738348
乃木坂_東京メトロ千代田線,乃木坂,35.666572,139.726215
表参道_東京メトロ千代田線,表参道,35.665247,139.712314
明治神宮前_東京メトロ千代田線,明治神宮前,35.669071,139.703995
代々木公園_東京メトロ千代田線,代々木公園,35.669187,139.689099
代々木上原_東京メトロ千代田線,代々木上原,35.669159,139.680153
渋谷_東京メトロ半蔵門線,渋谷,35.659066,139.701
表参道_東京メトロ半蔵門線,表参道,35.665247,139.712314
青山一丁目_東京メトロ半蔵門線,青山一丁目,35.672765,139.724159
永田町_東京メトロ半蔵門線,永田町,35.678757,139.740258
半蔵門_東京メトロ半蔵門線,半蔵門,35.685703,139.74163
九段下_東京メトロ半蔵門線,九段下,35.695589,139.751948
神保町_東京メトロ半蔵門線,神保町,35.695966,139.757606
大手町_東京メトロ半蔵門線,大手町,35.68686,139.764107
三越前_東京メトロ半蔵門線,三越前,35.684908,139.773147
水天宮前_東京メトロ半蔵門線,水天宮前,35.682683,139.785377
清澄白河_東京メトロ半蔵門線,清澄白河,35.682105,139.798851
住吉_東京メトロ半蔵門線,住吉,35.689073,139.815681
錦糸町_東京メトロ半蔵門線,錦糸町,35.697578,139.814941
押上_東京メトロ半蔵門線,押上,35.710702,139.812935
目黒_東京メトロ南北線,目黒,35.633272,139.7155
白金台_東京メトロ南北線,白金台,35.637917,139.726133
白金高輪_東京メトロ南北線,白金高輪,35.642903,139.734104
麻布十番_東京メトロ南北線,麻布十番,35.654682,139.737051
六本木一丁目_東京メトロ南北線,六本木一丁目,35.665595,139.739
溜池山王_東京メトロ南北線,溜池山王,35.673621,139.741419
永田町_東京メトロ南北線,永田町,35.678757,139.740258
四ツ谷_東京メトロ南北線,四ツ谷,35.686032,139.72955
市ケ谷_東京メトロ南北線,市ケ谷,35.691295,139.736642
飯田橋_東京メトロ南北線,飯田橋,35.701934,139.743669
後楽園_東京メトロ南北線,後楽園,35.707898,139.751864
東大前_東京メトロ南北線,東大前,35.717633,139.758025
本駒込_東京メトロ南北線,本駒込,35.724155,139.753828
駒込_東京メトロ南北線,駒込,35.736959,139.746442
西ケ原_東京メトロ南北線,西ケ原,35.746008,139.742322
王子_東京メトロ南北線,王子,35.753966,139.737618
王子神谷_東京メトロ南北線,王子神谷,35.765172,139.735933
志茂_東京メトロ南北線,志茂,35.777948,139.732599
赤羽岩淵_東京メトロ南北線,赤羽岩淵,35.783417,139.722103
北千住_東京メトロ日比谷線,北千住,35.748916,139.804276
南千住_東京メトロ日比谷線,南千住,35.733398,139.799273
三ノ輪_東京メトロ日比谷線,三ノ輪,35.729623,139.791485
入谷_東京メトロ日比谷線,入谷,35.719862,139.783924
上野_東京メトロ日比谷線,上野,35.711482,139.777122
仲御徒町_東京メトロ日比谷線,仲御徒町,35.706649,139.776138
秋葉原_東京メトロ日比谷線,秋葉原,35.698162,139.775459
小伝馬町_東京メトロ日比谷線,小伝馬町,35.690737,139.778433
人形町_東京メトロ日比谷線,人形町,35.686307,139.782285
茅場町_東京メトロ日比谷線,茅場町,35.679752,139.780005
八丁堀_東京メトロ日比谷線,八丁堀,35.674851,139.776982
築地_東京メトロ日比谷線,築地,35.668115,139.772603
東銀座_東京メトロ日比谷線,東銀座,35.669464,139.767253
銀座_東京メトロ日比谷線,銀座,35.671989,139.763965
日比谷_東京メトロ日比谷線,日比谷,35.67459,139.76017
霞ケ関_東京メトロ日比谷線,霞ケ関,35.673838,139.750899
虎ノ門ヒルズ_東京メトロ日比谷線,虎ノ門ヒルズ,35.667444,139.747793
神谷町_東京メトロ日比谷線,神谷町,35.662978,139.745069
六本木_東京メトロ日比谷線,六本木,35.662836,139.731443
広尾_東京メトロ日比谷線,広尾,35.652279,139.722202
恵比寿_東京メトロ日比谷線,恵比寿,35.647332,139.708988
中目黒_東京メトロ日比谷線,中目黒,35.643854,139.698621
和光市_東京メトロ有楽町線,和光市,35.788507,139.612434
地下鉄成増_東京メトロ有楽町線,地下鉄成増,35.776557,139.631497
地下鉄赤塚_東京メトロ有楽町線,地下鉄赤塚,35.769939,139.644021
平和台_東京メトロ有楽町線,平和台,35.757863,139.653762
氷川台_東京メトロ有楽町線,氷川台,35.74955,139.665567
小竹向原_東京メトロ有楽町線,小竹向原,35.743803,139.678572
千川_東京メトロ有楽町線,千川,35.738229,139.689271
要町_東京メトロ有楽町線,要町,35.73323,139.698715
池袋_東京メトロ有楽町線,池袋,35.729565,139.710088
東池袋_東京メトロ有楽町線,東池袋,35.725732,139.719546
護国寺_東京メトロ有楽町線,護国寺,35.719044,139.72754
江戸川橋_東京メトロ有楽町線,江戸川橋,35.709495,139.733538
飯田橋_東京メトロ有楽町線,飯田橋,35.701934,139.743669
市ヶ谷_東京メトロ有楽町線,市ヶ谷,35.691958,139.73647
麹町_東京メトロ有楽町線,麹町,35.684006,139.737613
永田町_東京メトロ有楽町線,永田町,35.678757,139.740258
桜田門_東京メトロ有楽町線,桜田門,35.677405,139.75149
有楽町_東京メトロ有楽町線,有楽町,35.675714,139.763265
銀座一丁目_東京メトロ有楽町線,銀座一丁目,35.67435,139.767045
新富町_東京メトロ有楽町線,新富町,35.670462,139.773711
月島_東京メトロ有楽町線,月島,35.664871,139.784233
豊洲_東京メトロ有楽町線,豊洲,35.654908,139.79621
辰巳_東京メトロ有楽町線,辰巳,35.645576,139.81052
新木場_東京メトロ有楽町線,新木場,35.645832,139.826254
中野_東京メトロ東西線,中野,35.705765,139.665835
落合_東京メトロ東西線,落合,35.710976,139.687284
高田馬場_東京メトロ東西線,高田馬場,35.713338,139.704745
早稲田_東京メトロ東西線,早稲田,35.705723,139.721319
神楽坂_東京メトロ東西線,神楽坂,35.70379,139.734546
飯田橋_東京メトロ東西線,飯田橋,35.701725,139.745986
九段下_東京メトロ東西線,九段下,35.695589,139.751948
竹橋_東京メトロ東西線,竹橋,35.690662,139.756817
大手町_東京メトロ東西線,大手町,35.684801,139.766086
日本橋_東京メトロ東西線,日本橋,35.682078,139.773516
茅場町_東京メトロ東西線,茅場町,35.679752,139.780005
門前仲町_東京メトロ東西線,門前仲町,35.671851,139.796209
木場_東京メトロ東西線,木場,35.669351,139.807042
東陽町_東京メトロ東西線,東陽町,35.669629,139.817596
南砂町_東京メトロ東西線,南砂町,35.668796,139.83065
西葛西_東京メトロ東西線,西葛西,35.664631,139.859259
葛西_東京メトロ東西線,葛西,35.663554,139.872458
浦安_東京メトロ東西線,浦安,35.665932,139.893193
南行徳_東京メトロ東西線,南行徳,35.672687,139.902311
行徳_東京メトロ東西線,行徳,35.682686,139.914254
妙典_東京メトロ東西線,妙典,35.690935,139.924209
原木中山_東京メトロ東西線,原木中山,35.703517,139.942029
西船橋_東京メトロ東西線,西船橋,35.707127,139.958972
渋谷_東京メトロ銀座線,渋谷,35.659066,139.701
表参道_東京メトロ銀座線,表参道,35.665247,139.712314
外苑前_東京メトロ銀座線,外苑前,35.670527,139.717857
青山一丁目_東京メトロ銀座線,青山一丁目,35.672765,139.724159
赤坂見附_東京メトロ銀座線,赤坂見附,35.677021,139.737047
溜池山王_東京メトロ銀座線,溜池山王,35.673621,139.741419
虎ノ門_東京メトロ銀座線,虎ノ門,35.670236,139.749832
新橋_東京メトロ銀座線,新橋,35.667434,139.758432
銀座_東京メトロ銀座線,銀座,35.671989,139.763965
京橋_東京メトロ銀座線,京橋,35.676856,139.770126
日本橋_東京メトロ銀座線,日本橋,35.682078,139.773516
三越前_東京メトロ銀座線,三越前,35.687101,139.773594
神田_東京メトロ銀座線,神田,35.693587,139.770899
末広町_東京メトロ銀座線,末広町,35.702972,139.771713
上野広小路_東京メトロ銀座線,上野広小路,35.70768,139.772877
上野_東京メトロ銀座線,上野,35.711482,139.777122
稲荷町_東京メトロ銀座線,稲荷町,35.711273,139.782593
田原町_東京メトロ銀座線,田原町,35.709897,139.790897
浅草_東京メトロ銀座線,浅草,35.710733,139.797592
和光市_東京メトロ副都心線,和光市,35.788507,139.612434
地下鉄成増_東京メトロ副都心線,地下鉄成増,35.776557,139.631497
地下鉄赤塚_東京メトロ副都心線,地下鉄赤塚,35.769939,139.644021
平和台_東京メトロ副都心線,平和台,35.757863,139.653762
氷川台_東京メトロ副都心線,氷川台,35.74955,139.665567
小竹向原_東京メトロ副都心線,小竹向原,35.743803,139.678572
千川_東京メトロ副都心線,千川,35.738229,139.689271
要町_東京メトロ副都心線,要町,35.73323,139.698715
池袋_東京メトロ副都心線,池袋,35.731464,139.708291
雑司が谷_東京メトロ副都心線,雑司が谷,35.720233,139.714795
西早稲田_東京メトロ副都心線,西早稲田,35.708242,139.709101
東新宿_東京メトロ副都心線,東新宿,35.698915,139.707593
新宿三丁目_東京メトロ副都心線,新宿三丁目,35.690853,139.704828
北参道_東京メトロ副都心線,北参道,35.678459,139.705453
明治神宮前〈原宿〉_東京メトロ副都心線,明治神宮前〈原宿〉,35.668497,139.705367
渋谷_東京メトロ副都心線,渋谷,35.659545,139.702417
モノレール浜松町_東京モノレール羽田線,モノレール浜松町,35.655666,139.756747
天王洲アイル_東京モノレール羽田線,天王洲アイル,35.622908,139.750675
大井競馬場前_東京モノレール羽田線,大井競馬場前,35.595006,139.74708
流通センター_東京モノレール羽田線,流通センター,35.58186,139.748964
昭和島_東京モノレール羽田線,昭和島,35.570656,139.749918
整備場_東京モノレール羽田線,整備場,35.555125,139.753366
天空橋_東京モノレール羽田線,天空橋,35.548908,139.75423
羽田空港第3ターミナル_東京モノレール羽田線,羽田空港第3ターミナル,35.544169,139.768206
新整備場_東京モノレール羽田線,新整備場,35.542773,139.786777
羽田空港第1ターミナル_東京モノレール羽田線,羽田空港第1ターミナル,35.549163,139.784653
羽田空港第2ターミナル_東京モノレール羽田線,羽田空港第2ターミナル,35.550734,139.787979
東京_東北新幹線,東京,35.681391,139.766103
上野_東北新幹線,上野,35.71379,139.777043
大宮_東北新幹線,大宮,35.906439,139.62405
小山_東北新幹線,小山,36.312747,139.806241
宇都宮_東北新幹線,宇都宮,36.559246,139.898389
那須塩原_東北新幹線,那須塩原,36.931956,140.020694
新白河_東北新幹線,新白河,37.12331,140.188969
郡山_東北新幹線,郡山,37.398187,140.389363
福島_東北新幹線,福島,37.754123,140.45968
白石蔵王_東北新幹線,白石蔵王,37.995052,140.632881
仙台_東北新幹線,仙台,38.260027,140.882158
古川_東北新幹線,古川,38.571192,140.967876
くりこま高原_東北新幹線,くりこま高原,38.749024,141.071756
一ノ関_東北新幹線,一ノ関,38.926514,141.138177
水沢江刺_東北新幹線,水沢江刺,39.14526,141.188748
北上_東北新幹線,北上,39.281196,141.121221
新花巻_東北新幹線,新花巻,39.405839,141.17302
盛岡_東北新幹線,盛岡,39.701547,141.136599
いわて沼宮内_東北新幹線,いわて沼宮内,39.960155,141.216955
二戸_東北新幹線,二戸,40.25997,141.286211
八戸_東北新幹線,八戸,40.509485,141.431067
七戸十和田_東北新幹線,七戸十和田,40.719954,141.153817
新青森_東北新幹線,新青森,40.8275,140.693472
三軒茶屋_東急世田谷線,三軒茶屋,35.643716,139.670156
西太子堂_東急世田谷線,西太子堂,35.644545,139.666382
若林_東急世田谷線,若林,35.645933,139.659911
松陰神社前_東急世田谷線,松陰神社前,35.643947,139.655211
世田谷_東急世田谷線,世田谷,35.643564,139.650945
上町_東急世田谷線,上町,35.643656,139.646276
宮の坂_東急世田谷線,宮の坂,35.647508,139.64494
山下_東急世田谷線,山下,35.653844,139.646509
松原_東急世田谷線,松原,35.660048,139.642
下高井戸_東急世田谷線,下高井戸,35.66615,139.641372
多摩川_東急多摩川線,多摩川,35.589591,139.668723
沼部_東急多摩川線,沼部,35.582526,139.67326
鵜の木_東急多摩川線,鵜の木,35.575452,139.680554
下丸子_東急多摩川線,下丸子,35.571397,139.685576
武蔵新田_東急多摩川線,武蔵新田,35.567806,139.692506
矢口渡_東急多摩川線,矢口渡,35.562462,139.700389
蒲田_東急多摩川線,蒲田,35.561767,139.714626
大井町_東急大井町線,大井町,35.607535,139.735025
下神明_東急大井町線,下神明,35.608704,139.726256
戸越公園_東急大井町線,戸越公園,35.608856,139.718159
中延_東急大井町線,中延,35.60571,139.712526
荏原町_東急大井町線,荏原町,35.60382,139.707571
旗の台_東急大井町線,旗の台,35.604923,139.702286
北千束_東急大井町線,北千束,35.606311,139.693303
大岡山_東急大井町線,大岡山,35.607456,139.685909
緑が丘_東急大井町線,緑が丘,35.60638,139.679482
自由が丘_東急大井町線,自由が丘,35.607224,139.668664
九品仏_東急大井町線,九品仏,35.60538,139.660992
尾山台_東急大井町線,尾山台,35.606971,139.653862
等々力_東急大井町線,等々力,35.608369,139.647938
上野毛_東急大井町線,上野毛,35.611957,139.638917
二子玉川_東急大井町線,二子玉川,35.611788,139.626685
渋谷_東急東横線,渋谷,35.659545,139.702417
代官山_東急東横線,代官山,35.648193,139.703284
中目黒_東急東横線,中目黒,35.643854,139.698621
祐天寺_東急東横線,祐天寺,35.637163,139.690758
学芸大学_東急東横線,学芸大学,35.628786,139.68522
都立大学_東急東横線,都立大学,35.617835,139.676393
自由が丘_東急東横線,自由が丘,35.607224,139.668664
田園調布_東急東横線,田園調布,35.596815,139.667356
多摩川_東急東横線,多摩川,35.589591,139.668723
新丸子_東急東横線,新丸子,35.58049,139.661964
武蔵小杉_東急東横線,武蔵小杉,35.575752,139.659652
元住吉_東急東横線,元住吉,35.565698,139.654668
日吉_東急東横線,日吉,35.5539,139.646944
綱島_東急東横線,綱島,35.536906,139.63491
大倉山_東急東横線,大倉山,35.52243,139.629808
菊名_東急東横線,菊名,35.509854,139.63137
妙蓮寺_東急東横線,妙蓮寺,35.498779,139.633194
白楽_東急東横線,白楽,35.489555,139.627875
東白楽_東急東横線,東白楽,35.483523,139.629364
反町_東急東横線,反町,35.47474,139.625337
横浜_東急東横線,横浜,35.466372,139.622299
五反田_東急池上線,五反田,35.625262,139.724175
大崎広小路_東急池上線,大崎広小路,35.622244,139.722339
戸越銀座_東急池上線,戸越銀座,35.615928,139.714862
荏原中延_東急池上線,荏原中延,35.610056,139.712196
旗の台_東急池上線,旗の台,35.604923,139.702286
長原_東急池上線,長原,35.60219,139.697881
洗足池_東急池上線,洗足池,35.599648,139.690896
石川台_東急池上線,石川台,35.596888,139.685063
雪が谷大塚_東急池上線,雪が谷大塚,35.592038,139.681083
御嶽山_東急池上線,御嶽山,35.585236,139.682473
久が原_東急池上線,久が原,35.579499,139.685678
千鳥町_東急池上線,千鳥町,35.572983,139.69142
池上_東急池上線,池上,35.572025,139.702822
蓮沼_東急池上線,蓮沼,35.564173,139.708544
蒲田_東急池上線,蒲田,35.561767,139.714626
渋谷_東急田園都市線,渋谷,35.65802,139.702148
池尻大橋_東急田園都市線,池尻大橋,35.650603,139.684319
三軒茶屋_東急田園都市線,三軒茶屋,35.643716,139.670156
駒沢大学_東急田園都市線,駒沢大学,35.633471,139.661702
桜新町_東急田園都市線,桜新町,35.631666,139.644779
用賀_東急田園都市線,用賀,35.626436,139.633928
二子玉川_東急田園都市線,二子玉川,35.611788,139.626685
二子新地_東急田園都市線,二子新地,35.606994,139.622338
高津_東急田園都市線,高津,35.603248,139.616934
溝の口_東急田園都市線,溝の口,35.59984,139.610487
梶が谷_東急田園都市線,梶が谷,35.593963,139.605885
宮崎台_東急田園都市線,宮崎台,35.587228,139.591313
宮前平_東急田園都市線,宮前平,35.584951,139.581983
鷺沼_東急田園都市線,鷺沼,35.579762,139.573268
たまプラーザ_東急田園都市線,たまプラーザ,35.577427,139.558447
あざみ野_東急田園都市線,あざみ野,35.568645,139.553462
江田_東急田園都市線,江田,35.558671,139.551518
市が尾_東急田園都市線,市が尾,35.551483,139.541496
藤が丘_東急田園都市線,藤が丘,35.543454,139.527655
青葉台_東急田園都市線,青葉台,35.542855,139.517376
田奈_東急田園都市線,田奈,35.536204,139.504855
長津田_東急田園都市線,長津田,35.53196,139.493548
つくし野_東急田園都市線,つくし野,35.527559,139.485139
すずかけ台_東急田園都市線,すずかけ台,35.517094,139.481684
南町田グランベリーパーク_東急田園都市線,南町田グランベリーパーク,35.511502,139.470318
つきみ野_東急田園都市線,つきみ野,35.510546,139.458651
中央林間_東急田園都市線,中央林間,35.507671,139.444935
目黒_東急目黒線,目黒,35.633272,139.7155
不動前_東急目黒線,不動前,35.626526,139.71469
武蔵小山_東急目黒線,武蔵小山,35.620538,139.704524
西小山_東急目黒線,西小山,35.615455,139.698694
洗足_東急目黒線,洗足,35.61043,139.694367
大岡山_東急目黒線,大岡山,35.607456,139.685909
奥沢_東急目黒線,奥沢,35.603947,139.672355
田園調布_東急目黒線,田園調布,35.596815,139.667356
多摩川_東急目黒線,多摩川,35.589591,139.668723
新丸子_東急目黒線,新丸子,35.58049,139.661964
武蔵小杉_東急目黒線,武蔵小杉,35.575752,139.659652
亀戸_東武亀戸線,亀戸,35.697708,139.826791
亀戸水神_東武亀戸線,亀戸水神,35.699976,139.833422
東あずま_東武亀戸線,東あずま,35.707067,139.831883
小村井_東武亀戸線,小村井,35.710316,139.827595
曳舟_東武亀戸線,曳舟,35.718418,139.816634
浅草_東武伊勢崎線,浅草,35.711883,139.798214
とうきょうスカイツリー_東武伊勢崎線,とうきょうスカイツリー,35.71043,139.809332
押上_東武伊勢崎線,押上,35.710702,139.812935
曳舟_東武伊勢崎線,曳舟,35.718418,139.816634
東向島_東武伊勢崎線,東向島,35.724324,139.819306
鐘ヶ淵_東武伊勢崎線,鐘ヶ淵,35.733712,139.820344
堀切_東武伊勢崎線,堀切,35.742977,139.817727
牛田_東武伊勢崎線,牛田,35.744555,139.811816
北千住_東武伊勢崎線,北千住,35.749891,139.805564
小菅_東武伊勢崎線,小菅,35.759039,139.812935
五反野_東武伊勢崎線,五反野,35.765852,139.809643
梅島_東武伊勢崎線,梅島,35.772437,139.797916
西新井_東武伊勢崎線,西新井,35.777323,139.790372
竹ノ塚_東武伊勢崎線,竹ノ塚,35.794368,139.790788
谷塚_東武伊勢崎線,谷塚,35.814926,139.801483
草加_東武伊勢崎線,草加,35.828476,139.803397
獨協大学前_東武伊勢崎線,獨協大学前,35.84333,139.800622
新田_東武伊勢崎線,新田,35.854086,139.795391
蒲生_東武伊勢崎線,蒲生,35.866851,139.791686
新越谷_東武伊勢崎線,新越谷,35.875186,139.789905
越谷_東武伊勢崎線,越谷,35.887529,139.786213
北越谷_東武伊勢崎線,北越谷,35.901724,139.780008
大袋_東武伊勢崎線,大袋,35.92437,139.777868
せんげん台_東武伊勢崎線,せんげん台,35.935832,139.774478
武里_東武伊勢崎線,武里,35.949102,139.770675
一ノ割_東武伊勢崎線,一ノ割,35.96412,139.766219
春日部_東武伊勢崎線,春日部,35.980095,139.752345
北春日部_東武伊勢崎線,北春日部,35.990655,139.744012
姫宮_東武伊勢崎線,姫宮,36.004384,139.738674
東武動物公園_東武伊勢崎線,東武動物公園,36.024604,139.726901
和戸_東武伊勢崎線,和戸,36.039562,139.701156
久喜_東武伊勢崎線,久喜,36.065684,139.67727
鷲宮_東武伊勢崎線,鷲宮,36.09626,139.656945
花崎_東武伊勢崎線,花崎,36.109891,139.633522
加須_東武伊勢崎線,加須,36.122992,139.595584
南羽生_東武伊勢崎線,南羽生,36.14959,139.55696
羽生_東武伊勢崎線,羽生,36.170345,139.533949
川俣_東武伊勢崎線,川俣,36.208778,139.52652
茂林寺前_東武伊勢崎線,茂林寺前,36.226331,139.527058
館林_東武伊勢崎線,館林,36.246606,139.527811
多々良_東武伊勢崎線,多々良,36.273732,139.500179
県_東武伊勢崎線,県,36.290615,139.472336
福居_東武伊勢崎線,福居,36.305208,139.458634
東武和泉_東武伊勢崎線,東武和泉,36.315595,139.45509
足利市_東武伊勢崎線,足利市,36.32948,139.448113
野州山辺_東武伊勢崎線,野州山辺,36.32633,139.431981
韮川_東武伊勢崎線,韮川,36.307913,139.401704
太田_東武伊勢崎線,太田,36.294228,139.378779
細谷_東武伊勢崎線,細谷,36.282523,139.348509
木崎_東武伊勢崎線,木崎,36.271393,139.312988
世良田_東武伊勢崎線,世良田,36.272931,139.282038
境町_東武伊勢崎線,境町,36.277191,139.256177
剛志_東武伊勢崎線,剛志,36.295428,139.223792
新伊勢崎_東武伊勢崎線,新伊勢崎,36.318052,139.201816
伊勢崎_東武伊勢崎線,伊勢崎,36.326622,139.194559
西新井_東武大師線,西新井,35.777323,139.790372
大師前_東武大師線,大師前,35.778989,139.781647
池袋_東武東上本線,池袋,35.730924,139.710678
北池袋_東武東上本線,北池袋,35.741283,139.716749
下板橋_東武東上本線,下板橋,35.745721,139.714785
大山_東武東上本線,大山,35.748398,139.702589
中板橋_東武東上本線,中板橋,35.756214,139.694628
ときわ台_東武東上本線,ときわ台,35.758771,139.689015
上板橋_東武東上本線,上板橋,35.763596,139.67641
東武練馬_東武東上本線,東武練馬,35.768698,139.661964
下赤塚_東武東上本線,下赤塚,35.770558,139.644482
成増_東武東上本線,成増,35.777723,139.632708
和光市_東武東上本線,和光市,35.788507,139.612434
朝霞_東武東上本線,朝霞,35.796736,139.600321
朝霞台_東武東上本線,朝霞台,35.814328,139.587189
志木_東武東上本線,志木,35.822105,139.575367
柳瀬川_東武東上本線,柳瀬川,35.830723,139.562071
みずほ台_東武東上本線,みずほ台,35.838233,139.55078
鶴瀬_東武東上本線,鶴瀬,35.845776,139.539347
ふじみ野_東武東上本線,ふじみ野,35.860735,139.523389
上福岡_東武東上本線,上福岡,35.873855,139.511782
新河岸_東武東上本線,新河岸,35.890911,139.497257
川越_東武東上本線,川越,35.906742,139.483078
川越市_東武東上本線,川越市,35.914146,139.476989
霞ヶ関_東武東上本線,霞ヶ関,35.925635,139.442897
鶴ヶ島_東武東上本線,鶴ヶ島,35.936771,139.423825
若葉_東武東上本線,若葉,35.948919,139.408782
坂戸_東武東上本線,坂戸,35.957181,139.394032
北坂戸_東武東上本線,北坂戸,35.972098,139.396932
高坂_東武東上本線,高坂,36.002572,139.397747
東松山_東武東上本線,東松山,36.034608,139.401651
森林公園_東武東上本線,森林公園,36.045239,139.374947
つきのわ_東武東上本線,つきのわ,36.04352,139.345541
武蔵嵐山_東武東上本線,武蔵嵐山,36.044001,139.32829
小川町_東武東上本線,小川町,36.05903,139.260412
東武竹沢_東武東上本線,東武竹沢,36.0754,139.237591
みなみ寄居_東武東上本線,みなみ寄居,36.091649,139.236463
男衾_東武東上本線,男衾,36.107415,139.234442
鉢形_東武東上本線,鉢形,36.11378,139.208649
玉淀_東武東上本線,玉淀,36.117071,139.200052
寄居_東武東上本線,寄居,36.117597,139.194508
東京_東海道新幹線,東京,35.681391,139.766103
品川_東海道新幹線,品川,35.62876,139.738999
新横浜_東海道新幹線,新横浜,35.506824,139.617348
小田原_東海道新幹線,小田原,35.256225,139.155772
熱海_東海道新幹線,熱海,35.103573,139.077679
三島_東海道新幹線,三島,35.126253,138.911133
新富士_東海道新幹線,新富士,35.142185,138.663637
静岡_東海道新幹線,静岡,34.971629,138.388579
掛川_東海道新幹線,掛川,34.769463,138.014937
浜松_東海道新幹線,浜松,34.703866,137.734759
豊橋_東海道新幹線,豊橋,34.762734,137.382128
三河安城_東海道新幹線,三河安城,34.96968,137.060918
名古屋_東海道新幹線,名古屋,35.170694,136.881637
岐阜羽島_東海道新幹線,岐阜羽島,35.316023,136.68537
米原_東海道新幹線,米原,35.314657,136.289992
京都_東海道新幹線,京都,34.985465,135.757748
新大阪_東海道新幹線,新大阪,34.734136,135.501852
国分寺_西武国分寺線,国分寺,35.700123,139.480841
恋ヶ窪_西武国分寺線,恋ヶ窪,35.711385,139.463944
鷹の台_西武国分寺線,鷹の台,35.723097,139.461155
小川_西武国分寺線,小川,35.737573,139.463493
東村山_西武国分寺線,東村山,35.76006,139.465839
武蔵境_西武多摩川線,武蔵境,35.702083,139.543402
新小金井_西武多摩川線,新小金井,35.695908,139.526603
多磨_西武多摩川線,多磨,35.676821,139.51713
白糸台_西武多摩川線,白糸台,35.666517,139.509862
競艇場前_西武多摩川線,競艇場前,35.656232,139.499721
是政_西武多摩川線,是政,35.656242,139.488592
国分寺_西武多摩湖線,国分寺,35.700836,139.479547
一橋学園_西武多摩湖線,一橋学園,35.72217,139.480039
青梅街道_西武多摩湖線,青梅街道,35.73098,139.476628
萩山_西武多摩湖線,萩山,35.740759,139.476903
八坂_西武多摩湖線,八坂,35.744925,139.467676
武蔵大和_西武多摩湖線,武蔵大和,35.756427,139.444008
多摩湖_西武多摩湖線,多摩湖,35.765881,139.442747
多摩湖_西武山口線,多摩湖,35.765881,139.442747
西武園ゆうえんち_西武山口線,西武園ゆうえんち,35.769042,139.440166
西武球場前_西武山口線,西武球場前,35.77093,139.41966
小平_西武拝島線,小平,35.736963,139.488491
萩山_西武拝島線,萩山,35.740759,139.476903
小川_西武拝島線,小川,35.737573,139.463493
東大和市_西武拝島線,東大和市,35.732829,139.434249
玉川上水_西武拝島線,玉川上水,35.731751,139.418435
武蔵砂川_西武拝島線,武蔵砂川,35.728876,139.392319
西武立川_西武拝島線,西武立川,35.7262,139.370124
拝島_西武拝島線,拝島,35.721278,139.343468
西武新宿_西武新宿線,西武新宿,35.696254,139.7
高田馬場_西武新宿線,高田馬場,35.712677,139.703715
下落合_西武新宿線,下落合,35.715846,139.695391
中井_西武新宿線,中井,35.715106,139.686967
新井薬師前_西武新宿線,新井薬師前,35.715778,139.672582
沼袋_西武新宿線,沼袋,35.719458,139.663841
野方_西武新宿線,野方,35.719658,139.652733
都立家政_西武新宿線,都立家政,35.722313,139.644839
鷺ノ宮_西武新宿線,鷺ノ宮,35.722605,139.63892
下井草_西武新宿線,下井草,35.723852,139.624688
井荻_西武新宿線,井荻,35.72469,139.615303
上井草_西武新宿線,上井草,35.725326,139.602937
上石神井_西武新宿線,上石神井,35.726189,139.592266
武蔵関_西武新宿線,武蔵関,35.7276,139.576417
東伏見_西武新宿線,東伏見,35.728761,139.563529
西武柳沢_西武新宿線,西武柳沢,35.728621,139.552477
田無_西武新宿線,田無,35.727307,139.539259
花小金井_西武新宿線,花小金井,35.726129,139.513228
小平_西武新宿線,小平,35.736963,139.488491
久米川_西武新宿線,久米川,35.749575,139.472653
東村山_西武新宿線,東村山,35.76006,139.465839
所沢_西武新宿線,所沢,35.786627,139.473324
航空公園_西武新宿線,航空公園,35.798272,139.465641
新所沢_西武新宿線,新所沢,35.805854,139.457069
入曽_西武新宿線,入曽,35.832481,139.427304
狭山市_西武新宿線,狭山市,35.856936,139.413015
新狭山_西武新宿線,新狭山,35.873993,139.433499
南大塚_西武新宿線,南大塚,35.889663,139.454189
本川越_西武新宿線,本川越,35.913524,139.481125
練馬_西武有楽町線,練馬,35.737893,139.654368
新桜台_西武有楽町線,新桜台,35.74077,139.6683
小竹向原_西武有楽町線,小竹向原,35.743803,139.678572
池袋_西武池袋線,池袋,35.72913,139.711461
椎名町_西武池袋線,椎名町,35.726572,139.694363
東長崎_西武池袋線,東長崎,35.73003,139.683294
江古田_西武池袋線,江古田,35.737557,139.672814
桜台_西武池袋線,桜台,35.738797,139.662602
練馬_西武池袋線,練馬,35.737893,139.654368
中村橋_西武池袋線,中村橋,35.736767,139.637456
富士見台_西武池袋線,富士見台,35.735867,139.62969
練馬高野台_西武池袋線,練馬高野台,35.740622,139.616749
石神井公園_西武池袋線,石神井公園,35.743563,139.606981
大泉学園_西武池袋線,大泉学園,35.749406,139.586732
保谷_西武池袋線,保谷,35.748222,139.567753
ひばりヶ丘_西武池袋線,ひばりヶ丘,35.751485,139.545852
東久留米_西武池袋線,東久留米,35.760445,139.533739
清瀬_西武池袋線,清瀬,35.772221,139.519917
秋津_西武池袋線,秋津,35.778614,139.496539
所沢_西武池袋線,所沢,35.786627,139.473324
西所沢_西武池袋線,西所沢,35.789303,139.455959
小手指_西武池袋線,小手指,35.800535,139.438016
狭山ヶ丘_西武池袋線,狭山ヶ丘,35.810445,139.416975
武蔵藤沢_西武池袋線,武蔵藤沢,35.820963,139.412736
稲荷山公園_西武池袋線,稲荷山公園,35.845112,139.39842
入間市_西武池袋線,入間市,35.842904,139.390294
仏子_西武池袋線,仏子,35.83769,139.360115
元加治_西武池袋線,元加治,35.84058,139.345316
飯能_西武池袋線,飯能,35.851189,139.318824
東飯能_西武池袋線,東飯能,35.852928,139.325965
高麗_西武池袋線,高麗,35.881982,139.304414
武蔵横手_西武池袋線,武蔵横手,35.885256,139.280667
東吾野_西武池袋線,東吾野,35.892439,139.260281
吾野_西武池袋線,吾野,35.908502,139.226787
東村山_西武西武園線,東村山,35.76006,139.465839
西武園_西武西武園線,西武園,35.767684,139.448904
練馬_西武豊島線,練馬,35.737893,139.654368
豊島園_西武豊島線,豊島園,35.742054,139.647979
目黒_都営三田線,目黒,35.633272,139.7155
白金台_都営三田線,白金台,35.637917,139.726133
白金高輪_都営三田線,白金高輪,35.642903,139.734104
三田_都営三田線,三田,35.64818,139.748775
芝公園_都営三田線,芝公園,35.654074,139.749824
御成門_都営三田線,御成門,35.661215,139.751535
内幸町_都営三田線,内幸町,35.66975,139.75561
日比谷_都営三田線,日比谷,35.676036,139.759998
大手町_都営三田線,大手町,35.684856,139.762959
神保町_都営三田線,神保町,35.695492,139.75812
水道橋_都営三田線,水道橋,35.703398,139.75516
春日_都営三田線,春日,35.709598,139.75325
白山_都営三田線,白山,35.721408,139.752136
千石_都営三田線,千石,35.727957,139.744792
巣鴨_都営三田線,巣鴨,35.733502,139.738519
西巣鴨_都営三田線,西巣鴨,35.743508,139.728712
新板橋_都営三田線,新板橋,35.748785,139.720101
板橋区役所前_都営三田線,板橋区役所前,35.751284,139.710102
板橋本町_都営三田線,板橋本町,35.761339,139.705535
本蓮沼_都営三田線,本蓮沼,35.768782,139.702324
志村坂上_都営三田線,志村坂上,35.775725,139.69538
志村三丁目_都営三田線,志村三丁目,35.777391,139.685937
蓮根_都営三田線,蓮根,35.784335,139.678993
西台_都営三田線,西台,35.78699,139.673971
高島平_都営三田線,高島平,35.789056,139.661216
新高島平_都営三田線,新高島平,35.790189,139.654275
西高島平_都営三田線,西高島平,35.791833,139.64594
新宿西口_都営大江戸線,新宿西口,35.693315,139.699155
東新宿_都営大江戸線,東新宿,35.69792,139.707549
若松河田_都営大江戸線,若松河田,35.699218,139.718184
牛込柳町_都営大江戸線,牛込柳町,35.699518,139.725027
牛込神楽坂_都営大江戸線,牛込神楽坂,35.700851,139.735802
飯田橋_都営大江戸線,飯田橋,35.702927,139.744999
春日_都営大江戸線,春日,35.709598,139.75325
本郷三丁目_都営大江戸線,本郷三丁目,35.707462,139.760095
上野御徒町_都営大江戸線,上野御徒町,35.707893,139.774332
新御徒町_都営大江戸線,新御徒町,35.707045,139.781958
蔵前_都営大江戸線,蔵前,35.703236,139.790931
両国_都営大江戸線,両国,35.696881,139.797421
森下_都営大江戸線,森下,35.68796,139.797042
清澄白河_都営大江戸線,清澄白河,35.682105,139.798851
門前仲町_都営大江戸線,門前仲町,35.671851,139.796209
月島_都営大江戸線,月島,35.664871,139.784233
勝どき_都営大江戸線,勝どき,35.658507,139.776442
築地市場_都営大江戸線,築地市場,35.664895,139.766915
汐留_都営大江戸線,汐留,35.663703,139.760642
大門_都営大江戸線,大門,35.656785,139.75466
赤羽橋_都営大江戸線,赤羽橋,35.655007,139.743642
麻布十番_都営大江戸線,麻布十番,35.656503,139.736116
六本木_都営大江戸線,六本木,35.663921,139.731567
青山一丁目_都営大江戸線,青山一丁目,35.672929,139.72396
国立競技場_都営大江戸線,国立競技場,35.679831,139.714932
代々木_都営大江戸線,代々木,35.683218,139.701666
新宿_都営大江戸線,新宿,35.68869,139.698812
都庁前_都営大江戸線,都庁前,35.690551,139.69257
西新宿五丁目_都営大江戸線,西新宿五丁目,35.689798,139.684304
中野坂上_都営大江戸線,中野坂上,35.69709,139.682279
東中野_都営大江戸線,東中野,35.706891,139.682987
中井_都営大江戸線,中井,35.714035,139.686356
落合南長崎_都営大江戸線,落合南長崎,35.723608,139.683303
新江古田_都営大江戸線,新江古田,35.732538,139.670653
練馬_都営大江戸線,練馬,35.737404,139.65477
豊島園_都営大江戸線,豊島園,35.742067,139.64911
練馬春日町_都営大江戸線,練馬春日町,35.751452,139.640236
光が丘_都営大江戸線,光が丘,35.758526,139.628603
新宿_都営新宿線,新宿,35.68869,139.698812
新宿三丁目_都営新宿線,新宿三丁目,35.690616,139.706271
曙橋_都営新宿線,曙橋,35.692402,139.722881
市ヶ谷_都営新宿線,市ヶ谷,35.692594,139.735794
九段下_都営新宿線,九段下,35.695589,139.751948
神保町_都営新宿線,神保町,35.695966,139.757606
小川町_都営新宿線,小川町,35.695487,139.767551
岩本町_都営新宿線,岩本町,35.695534,139.775866
馬喰横山_都営新宿線,馬喰横山,35.69212,139.782768
浜町_都営新宿線,浜町,35.688516,139.788154
森下_都営新宿線,森下,35.68796,139.797042
菊川_都営新宿線,菊川,35.688379,139.806016
住吉_都営新宿線,住吉,35.689073,139.815681
西大島_都営新宿線,西大島,35.689349,139.826206
大島_都営新宿線,大島,35.689905,139.83565
東大島_都営新宿線,東大島,35.690355,139.845963
船堀_都営新宿線,船堀,35.683795,139.864258
一之江_都営新宿線,一之江,35.686055,139.882934
瑞江_都営新宿線,瑞江,35.693318,139.89761
篠崎_都営新宿線,篠崎,35.706017,139.903698
本八幡_都営新宿線,本八幡,35.722929,139.926628
西馬込_都営浅草線,西馬込,35.586859,139.705942
馬込_都営浅草線,馬込,35.596435,139.711772
中延_都営浅草線,中延,35.605769,139.713736
戸越_都営浅草線,戸越,35.614633,139.716495
五反田_都営浅草線,五反田,35.627102,139.724175
高輪台_都営浅草線,高輪台,35.631679,139.730305
泉岳寺_都営浅草線,泉岳寺,35.638692,139.74002
三田_都営浅草線,三田,35.64818,139.748775
大門_都営浅草線,大門,35.656785,139.75466
新橋_都営浅草線,新橋,35.665577,139.759451
東銀座_都営浅草線,東銀座,35.669464,139.767253
宝町_都営浅草線,宝町,35.675461,139.771767
日本橋_都営浅草線,日本橋,35.681688,139.775721
人形町_都営浅草線,人形町,35.686307,139.782285
東日本橋_都営浅草線,東日本橋,35.692126,139.784821
浅草橋_都営浅草線,浅草橋,35.697451,139.786305
蔵前_都営浅草線,蔵前,35.703236,139.790931
浅草_都営浅草線,浅草,35.709461,139.79697
本所吾妻橋_都営浅草線,本所吾妻橋,35.70858,139.804624
押上_都営浅草線,押上,35.710702,139.812935
三ノ輪橋_都電荒川線,三ノ輪橋,35.732248,139.791412
荒川一中前_都電荒川線,荒川一中前,35.733659,139.788988
荒川区役所前_都電荒川線,荒川区役所前,35.73493,139.786456
荒川二丁目_都電荒川線,荒川二丁目,35.738623,139.784696
荒川七丁目_都電荒川線,荒川七丁目,35.741975,139.78417
町屋駅前_都電荒川線,町屋駅前,35.74275,139.781145
町屋二丁目_都電荒川線,町屋二丁目,35.743837,139.776625
東尾久三丁目_都電荒川線,東尾久三丁目,35.745398,139.774386
熊野前_都電荒川線,熊野前,35.749212,139.769204
宮ノ前_都電荒川線,宮ノ前,35.750135,139.764955
小台_都電荒川線,小台,35.750579,139.761779
荒川遊園地前_都電荒川線,荒川遊園地前,35.750744,139.757767
荒川車庫前_都電荒川線,荒川車庫前,35.750909,139.752617
梶原_都電荒川線,梶原,35.751162,139.747403
栄町_都電荒川線,栄町,35.750909,139.742124
王子駅前_都電荒川線,王子駅前,35.753199,139.737661
飛鳥山_都電荒川線,飛鳥山,35.750248,139.737382
滝野川一丁目_都電荒川線,滝野川一丁目,35.747374,139.735376
西ヶ原四丁目_都電荒川線,西ヶ原四丁目,35.744501,139.732779
新庚申塚_都電荒川線,新庚申塚,35.741348,139.730451
庚申塚_都電荒川線,庚申塚,35.739563,139.729743
巣鴨新田_都電荒川線,巣鴨新田,35.735488,139.727769
大塚駅前_都電荒川線,大塚駅前,35.732082,139.729593
向原_都電荒川線,向原,35.728938,139.724894
東池袋四丁目_都電荒川線,東池袋四丁目,35.72528,139.720012
都電雑司ヶ谷_都電荒川線,都電雑司ヶ谷,35.724261,139.718006
鬼子母神前_都電荒川線,鬼子母神前,35.720403,139.714916
学習院下_都電荒川線,学習院下,35.716248,139.71247
面影橋_都電荒川線,面影橋,35.712981,139.714444
早稲田_都電荒川線,早稲田,35.711848,139.718928
敦賀_北陸新幹線,敦賀,35.644767,136.076488
越前たけふ_北陸新幹線,越前たけふ,35.895695,136.198935
福井_北陸新幹線,福井,36.062057,136.223516
芦原温泉_北陸新幹線,芦原温泉,36.214542,136.235069
加賀温泉_北陸新幹線,加賀温泉,36.320562,136.350337
小松_北陸新幹線,小松,36.402545,136.452926
金沢_北陸新幹線,金沢,36.578117,136.648166
新高岡_北陸新幹線,新高岡,36.727004,137.010459
富山_北陸新幹線,富山,36.701384,137.213091
黒部宇奈月温泉_北陸新幹線,黒部宇奈月温泉,36.874232,137.481326
糸魚川_北陸新幹線,糸魚川,37.043631,137.861311
上越妙高_北陸新幹線,上越妙高,37.081813,138.249476
飯山_北陸新幹線,飯山,36.845183,138.358939
長野_北陸新幹線,長野,36.643307,138.189101
上田_北陸新幹線,上田,36.396579,138.249298
佐久平_北陸新幹線,佐久平,36.277929,138.464367
軽井沢_北陸新幹線,軽井沢,36.342889,138.635096
安中榛名_北陸新幹線,安中榛名,36.362582,138.849312
高崎_北陸新幹線,高崎,36.322239,139.012354
本庄早稲田_北陸新幹線,本庄早稲田,36.218754,139.179676
熊谷_北陸新幹線,熊谷,36.139627,139.389528
大宮_北陸新幹線,大宮,35.906439,139.62405
上野_北陸新幹線,上野,35.71379,139.777043
東京_北陸新幹線,東京,35.681391,139.766103
高尾山_高尾登山電鉄線,高尾山,35.63111,139.256026
清滝_高尾登山電鉄線,清滝,35.631083,139.266772
日暮里_日暮里・舎人ライナー,日暮里,35.727908,139.771287
西日暮里_日暮里・舎人ライナー,西日暮里,35.731954,139.766857
赤土小学校前_日暮里・舎人ライナー,赤土小学校前,35.742454,139.768989
熊野前_日暮里・舎人ライナー,熊野前,35.748972,139.769695
足立小台_日暮里・舎人ライナー,足立小台,35.754658,139.770381
扇大橋_日暮里・舎人ライナー,扇大橋,35.763897,139.770808
高野_日暮里・舎人ライナー,高野,35.768359,139.770679
江北_日暮里・舎人ライナー,江北,35.774021,139.770306
西新井大師西_日暮里・舎人ライナー,西新井大師西,35.781505,139.770094
谷在家_日暮里・舎人ライナー,谷在家,35.788774,139.770043
舎人公園_日暮里・舎人ライナー,舎人公園,35.79623,139.770183
舎人_日暮里・舎人ライナー,舎人,35.8057,139.770108
見沼代親水公園_日暮里・舎人ライナー,見沼代親水公園,35.814544,139.770719
大宮_JR上野東京ライン,大宮,35.906439,139.62405
さいたま新都心_JR上野東京ライン,さいたま新都心,35.893867,139.633587
浦和_JR上野東京ライン,浦和,35.858496,139.657109
赤羽_JR上野東京ライン,赤羽,35.778026,139.720928
尾久_JR上野東京ライン,尾久,35.74683,139.753846
日暮里_JR上野東京ライン,日暮里,35.727908,139.771287
上野_JR上野東京ライン,上野,35.71379,139.777043
東京_JR上野東京ライン,東京,35.681391,139.766103
新橋_JR上野東京ライン,新橋,35.666195,139.758587
品川_JR上野東京ライン,品川,35.62876,139.738999
川崎_JR上野東京ライン,川崎,35.531311,139.697485
横浜_JR上野東京ライン,横浜,35.466195,139.622704
戸塚_JR上野東京ライン,戸塚,35.400432,139.534282
大船_JR上野東京ライン,大船,35.353466,139.531127
新宿_相鉄・JR直通線,新宿,35.689729,139.700464
渋谷_相鉄・JR直通線,渋谷,35.658871,139.701238
恵比寿_相鉄・JR直通線,恵比寿,35.646685,139.71007
大崎_相鉄・JR直通線,大崎,35.619772,139.728439
西大井_相鉄・JR直通線,西大井,35.601616,139.721729
武蔵小杉_相鉄・JR直通線,武蔵小杉,35.575965,139.663278
羽沢横浜国大_相鉄・JR直通線,羽沢横浜国大,35.481245,139.586167
西谷_相鉄・JR直通線,西谷,35.478092,139.565721
鶴ヶ峰_相鉄・JR直通線,鶴ヶ峰,35.475031,139.549586
二俣川_相鉄・JR直通線,二俣川,35.463335,139.532207
希望ヶ丘_相鉄・JR直通線,希望ヶ丘,35.460399,139.5143
三ツ境_相鉄・JR直通線,三ツ境,35.467779,139.502662
瀬谷_相鉄・JR直通線,瀬谷,35.470412,139.482574
大和_相鉄・JR直通線,大和,35.469924,139.461383
相模大塚_相鉄・JR直通線,相模大塚,35.470666,139.441232
さがみ野_相鉄・JR直通線,さがみ野,35.471485,139.429055
かしわ台_相鉄・JR直通線,かしわ台,35.466744,139.415851
海老名_相鉄・JR直通線,海老名,35.453381,139.392074
尻手_JR南武支線,尻手,35.530939,139.684233
八丁畷_JR南武支線,八丁畷,35.52307,139.691446
川崎新町_JR南武支線,川崎新町,35.518234,139.699348
小田栄_JR南武支線,小田栄,35.5145,139.704944
浜川崎_JR南武支線,浜川崎,35.510428,139.713483
国府津_JR御殿場線,国府津,35.280832,139.212932
下曽我_JR御殿場線,下曽我,35.303554,139.183395
上大井_JR御殿場線,上大井,35.321883,139.163508
相模金子_JR御殿場線,相模金子,35.33364,139.150753
松田_JR御殿場線,松田,35.346843,139.137417
東山北_JR御殿場線,東山北,35.357637,139.10765
山北_JR御殿場線,山北,35.360808,139.080212
谷峨_JR御殿場線,谷峨,35.366561,139.038234
駿河小山_JR御殿場線,駿河小山,35.359113,138.997689
足柄_JR御殿場線,足柄,35.332233,138.981687
御殿場_JR御殿場線,御殿場,35.299933,138.93424
南御殿場_JR御殿場線,南御殿場,35.277269,138.925789
富士岡_JR御殿場線,富士岡,35.257299,138.920504
岩波_JR御殿場線,岩波,35.21498,138.919296
裾野_JR御殿場線,裾野,35.171372,138.909293
長泉なめり_JR御殿場線,長泉なめり,35.147633,138.899364
下土狩_JR御殿場線,下土狩,35.128379,138.895126
大岡_JR御殿場線,大岡,35.116158,138.881988
沼津_JR御殿場線,沼津,35.103011,138.860104
横浜_JR根岸線,横浜,35.466195,139.622704
桜木町_JR根岸線,桜木町,35.451112,139.63088
関内_JR根岸線,関内,35.443336,139.636984
石川町_JR根岸線,石川町,35.438808,139.642934
山手_JR根岸線,山手,35.426891,139.646425
根岸_JR根岸線,根岸,35.415887,139.636034
磯子_JR根岸線,磯子,35.399881,139.617916
新杉田_JR根岸線,新杉田,35.386863,139.619483
洋光台_JR根岸線,洋光台,35.378785,139.596852
港南台_JR根岸線,港南台,35.375183,139.576243
本郷台_JR根岸線,本郷台,35.36787,139.550159
大船_JR根岸線,大船,35.353466,139.531127
茅ヶ崎_JR相模線,茅ヶ崎,35.330741,139.407197
北茅ヶ崎_JR相模線,北茅ヶ崎,35.339167,139.407569
香川_JR相模線,香川,35.35655,139.400044
寒川_JR相模線,寒川,35.367579,139.387452
宮山_JR相模線,宮山,35.382261,139.379639
倉見_JR相模線,倉見,35.395098,139.378422
門沢橋_JR相模線,門沢橋,35.406761,139.380139
社家_JR相模線,社家,35.420543,139.377281
厚木_JR相模線,厚木,35.44375,139.378631
海老名_JR相模線,海老名,35.454282,139.389328
入谷_JR相模線,入谷,35.478478,139.391913
相武台下_JR相模線,相武台下,35.492734,139.386297
下溝_JR相模線,下溝,35.518516,139.380428
原当麻_JR相模線,原当麻,35.528978,139.375355
番田_JR相模線,番田,35.545392,139.362988
上溝_JR相模線,上溝,35.557623,139.36315
南橋本_JR相模線,南橋本,35.58042,139.352484
橋本_JR相模線,橋本,35.594975,139.344586
鶴見_JR鶴見線,鶴見,35.508387,139.67614
国道_JR鶴見線,国道,35.50083,139.675599
鶴見小野_JR鶴見線,鶴見小野,35.497005,139.681226
弁天橋_JR鶴見線,弁天橋,35.495758,139.689451
浅野_JR鶴見線,浅野,35.497555,139.695739
新芝浦_JR鶴見線,新芝浦,35.491915,139.7001
海芝浦_JR鶴見線,海芝浦,35.486073,139.700603
安善_JR鶴見線,安善,35.499668,139.700663
武蔵白石_JR鶴見線,武蔵白石,35.501912,139.706513
大川_JR鶴見線,大川,35.495646,139.711038
浜川崎_JR鶴見線,浜川崎,35.509863,139.713575
昭和_JR鶴見線,昭和,35.506836,139.723897
扇町_JR鶴見線,扇町,35.501452,139.722147
堀ノ内_京浜急行久里浜線,堀ノ内,35.26322,139.686932
新大津_京浜急行久里浜線,新大津,35.257013,139.69016
北久里浜_京浜急行久里浜線,北久里浜,35.249355,139.686368
京急久里浜_京浜急行久里浜線,京急久里浜,35.231332,139.702139
YRP野比_京浜急行久里浜線,YRP野比,35.212229,139.685068
京急長沢_京浜急行久里浜線,京急長沢,35.20548,139.674048
津久井浜_京浜急行久里浜線,津久井浜,35.198419,139.665279
三浦海岸_京浜急行久里浜線,三浦海岸,35.188084,139.653138
三崎口_京浜急行久里浜線,三崎口,35.177515,139.633207
京急川崎_京浜急行大師線,京急川崎,35.53285,139.700893
港町_京浜急行大師線,港町,35.535014,139.712578
鈴木町_京浜急行大師線,鈴木町,35.53535,139.720655
川崎大師_京浜急行大師線,川崎大師,35.535711,139.725946
東門前_京浜急行大師線,東門前,35.536566,139.734298
大師橋_京浜急行大師線,大師橋,35.536611,139.740381
小島新田_京浜急行大師線,小島新田,35.534798,139.747575
金沢文庫_京浜急行逗子線,金沢文庫,35.342966,139.621606
金沢八景_京浜急行逗子線,金沢八景,35.331223,139.62018
六浦_京浜急行逗子線,六浦,35.32269,139.611532
神武寺_京浜急行逗子線,神武寺,35.306233,139.592947
逗子・葉山_京浜急行逗子線,逗子・葉山,35.294189,139.580359
小田原_伊豆箱根鉄道大雄山線,小田原,35.25658,139.156474
緑町_伊豆箱根鉄道大雄山線,緑町,35.259226,139.158578
井細田_伊豆箱根鉄道大雄山線,井細田,35.268964,139.157397
五百羅漢_伊豆箱根鉄道大雄山線,五百羅漢,35.27519,139.155758
穴部_伊豆箱根鉄道大雄山線,穴部,35.279887,139.148787
飯田岡_伊豆箱根鉄道大雄山線,飯田岡,35.287913,139.139109
相模沼田_伊豆箱根鉄道大雄山線,相模沼田,35.292334,139.133945
岩原_伊豆箱根鉄道大雄山線,岩原,35.298825,139.12879
塚原_伊豆箱根鉄道大雄山線,塚原,35.301305,139.126632
和田河原_伊豆箱根鉄道大雄山線,和田河原,35.31585,139.118684
富士フィルム前_伊豆箱根鉄道大雄山線,富士フィルム前,35.317657,139.109483
大雄山_伊豆箱根鉄道大雄山線,大雄山,35.319046,139.10365
大山ケーブル_大山鋼索線,大山ケーブル,35.427956,139.244494
大山寺_大山鋼索線,大山寺,35.429629,139.241019
阿夫利神社_大山鋼索線,阿夫利神社,35.431541,139.237838
相模大野_小田急江ノ島線,相模大野,35.532208,139.437836
東林間_小田急江ノ島線,東林間,35.520541,139.438883
中央林間_小田急江ノ島線,中央林間,35.508066,139.444105
南林間_小田急江ノ島線,南林間,35.495627,139.447911
鶴間_小田急江ノ島線,鶴間,35.49057,139.450572
大和_小田急江ノ島線,大和,35.46965,139.461553
桜ヶ丘_小田急江ノ島線,桜ヶ丘,35.450486,139.465734
高座渋谷_小田急江ノ島線,高座渋谷,35.432519,139.464854
長後_小田急江ノ島線,長後,35.41261,139.465307
湘南台_小田急江ノ島線,湘南台,35.396488,139.466451
六会日大前_小田急江ノ島線,六会日大前,35.383761,139.470665
善行_小田急江ノ島線,善行,35.36285,139.473199
藤沢本町_小田急江ノ島線,藤沢本町,35.348188,139.476046
藤沢_小田急江ノ島線,藤沢,35.338558,139.486971
本鵠沼_小田急江ノ島線,本鵠沼,35.331129,139.475412
鵠沼海岸_小田急江ノ島線,鵠沼海岸,35.320744,139.47121
片瀬江ノ島_小田急江ノ島線,片瀬江ノ島,35.309345,139.482934
長津田_東急こどもの国線,長津田,35.53196,139.493548
恩田_東急こどもの国線,恩田,35.545535,139.492127
こどもの国_東急こどもの国線,こどもの国,35.558035,139.486657
横浜_横浜みなとみらい線,横浜,35.466372,139.622299
新高島_横浜みなとみらい線,新高島,35.46192,139.626499
みなとみらい_横浜みなとみらい線,みなとみらい,35.458028,139.632386
馬車道_横浜みなとみらい線,馬車道,35.450135,139.636175
日本大通り_横浜みなとみらい線,日本大通り,35.446821,139.642608
元町・中華街_横浜みなとみらい線,元町・中華街,35.44243,139.650446
湘南台_横浜市ブルーライン,湘南台,35.396471,139.467283
下飯田_横浜市ブルーライン,下飯田,35.403503,139.483195
立場_横浜市ブルーライン,立場,35.414296,139.500177
中田_横浜市ブルーライン,中田,35.411161,139.511301
踊場_横浜市ブルーライン,踊場,35.405922,139.518058
戸塚_横浜市ブルーライン,戸塚,35.400818,139.534328
舞岡_横浜市ブルーライン,舞岡,35.402685,139.551509
下永谷_横浜市ブルーライン,下永谷,35.402677,139.559389
上永谷_横浜市ブルーライン,上永谷,35.401391,139.572713
港南中央_横浜市ブルーライン,港南中央,35.401049,139.590958
上大岡_横浜市ブルーライン,上大岡,35.408745,139.595901
弘明寺_横浜市ブルーライン,弘明寺,35.423294,139.602081
蒔田_横浜市ブルーライン,蒔田,35.429935,139.610123
吉野町_横浜市ブルーライン,吉野町,35.435489,139.618455
阪東橋_横浜市ブルーライン,阪東橋,35.437434,139.624843
伊勢佐木長者町_横浜市ブルーライン,伊勢佐木長者町,35.441044,139.633176
関内_横浜市ブルーライン,関内,35.445821,139.635855
桜木町_横浜市ブルーライン,桜木町,35.449667,139.630791
高島町_横浜市ブルーライン,高島町,35.458575,139.623743
横浜_横浜市ブルーライン,横浜,35.465826,139.619912
三ツ沢下町_横浜市ブルーライン,三ツ沢下町,35.476512,139.61481
三ツ沢上町_横浜市ブルーライン,三ツ沢上町,35.476526,139.605395
片倉町_横浜市ブルーライン,片倉町,35.490205,139.606511
岸根公園_横浜市ブルーライン,岸根公園,35.496038,139.617065
新横浜_横浜市ブルーライン,新横浜,35.508588,139.617745
北新横浜_横浜市ブルーライン,北新横浜,35.519271,139.612818
新羽_横浜市ブルーライン,新羽,35.527701,139.612065
仲町台_横浜市ブルーライン,仲町台,35.535258,139.589715
センター南_横浜市ブルーライン,センター南,35.545476,139.574291
センター北_横浜市ブルーライン,センター北,35.55353,139.578457
中川_横浜市ブルーライン,中川,35.562973,139.569846
あざみ野_横浜市ブルーライン,あざみ野,35.568076,139.553694
新杉田_金沢シーサイドライン,新杉田,35.385919,139.620502
南部市場_金沢シーサイドライン,南部市場,35.380192,139.633163
鳥浜_金沢シーサイドライン,鳥浜,35.377187,139.641704
並木北_金沢シーサイドライン,並木北,35.372015,139.642743
並木中央_金沢シーサイドライン,並木中央,35.365505,139.642945
幸浦_金沢シーサイドライン,幸浦,35.358406,139.643706
産業振興センター_金沢シーサイドライン,産業振興センター,35.35339,139.646326
福浦_金沢シーサイドライン,福浦,35.349627,139.648517
市大医学部_金沢シーサイドライン,市大医学部,35.343966,139.650156
八景島_金沢シーサイドライン,八景島,35.340914,139.64079
海の公園柴口_金沢シーサイドライン,海の公園柴口,35.342086,139.635846
海の公園南口_金沢シーサイドライン,海の公園南口,35.337225,139.632096
野島公園_金沢シーサイドライン,野島公園,35.330559,139.631524
金沢八景_金沢シーサイドライン,金沢八景,35.331587,139.620791
鎌倉_江ノ島電鉄線,鎌倉,35.318491,139.550121
和田塚_江ノ島電鉄線,和田塚,35.31372,139.545362
由比ヶ浜_江ノ島電鉄線,由比ヶ浜,35.312857,139.54157
長谷_江ノ島電鉄線,長谷,35.311265,139.536168
極楽寺_江ノ島電鉄線,極楽寺,35.309318,139.528721
稲村ヶ崎_江ノ島電鉄線,稲村ヶ崎,35.30426,139.522322
七里ヶ浜_江ノ島電鉄線,七里ヶ浜,35.306243,139.510101
鎌倉高校前_江ノ島電鉄線,鎌倉高校前,35.306698,139.500535
腰越_江ノ島電鉄線,腰越,35.308287,139.493286
江ノ島_江ノ島電鉄線,江ノ島,35.311003,139.487581
湘南海岸公園_江ノ島電鉄線,湘南海岸公園,35.315203,139.4833
鵠沼_江ノ島電鉄線,鵠沼,35.321447,139.482637
柳小路_江ノ島電鉄線,柳小路,35.327352,139.485189
石上_江ノ島電鉄線,石上,35.332482,139.485572
藤沢_江ノ島電鉄線,藤沢,35.337227,139.487293
大船_湘南モノレール,大船,35.352359,139.531367
富士見町_湘南モノレール,富士見町,35.345389,139.529277
湘南町屋_湘南モノレール,湘南町屋,35.337832,139.522666
湘南深沢_湘南モノレール,湘南深沢,35.332865,139.518903
西鎌倉_湘南モノレール,西鎌倉,35.319383,139.504365
片瀬山_湘南モノレール,片瀬山,35.317256,139.496052
目白山下_湘南モノレール,目白山下,35.31402,139.491533
湘南江の島_湘南モノレール,湘南江の島,35.311867,139.487794
二俣川_相模鉄道いずみ野線,二俣川,35.463335,139.532207
南万騎が原_相模鉄道いずみ野線,南万騎が原,35.452522,139.526344
緑園都市_相模鉄道いずみ野線,緑園都市,35.439502,139.521841
弥生台_相模鉄道いずみ野線,弥生台,35.429933,139.506615
いずみ野_相模鉄道いずみ野線,いずみ野,35.429434,139.495135
いずみ中央_相模鉄道いずみ野線,いずみ中央,35.415385,139.48727
ゆめが丘_相模鉄道いずみ野線,ゆめが丘,35.405436,139.482192
湘南台_相模鉄道いずみ野線,湘南台,35.396642,139.467031
横浜_相模鉄道本線,横浜,35.465852,139.621768
平沼橋_相模鉄道本線,平沼橋,35.460355,139.616897
西横浜_相模鉄道本線,西横浜,35.453437,139.608745
天王町_相模鉄道本線,天王町,35.453984,139.602554
星川_相模鉄道本線,星川,35.458634,139.594816
和田町_相模鉄道本線,和田町,35.463597,139.586786
上星川_相模鉄道本線,上星川,35.467694,139.580078
西谷_相模鉄道本線,西谷,35.478092,139.565721
鶴ヶ峰_相模鉄道本線,鶴ヶ峰,35.475031,139.549586
二俣川_相模鉄道本線,二俣川,35.463335,139.532207
希望ヶ丘_相模鉄道本線,希望ヶ丘,35.460399,139.5143
三ツ境_相模鉄道本線,三ツ境,35.467779,139.502662
瀬谷_相模鉄道本線,瀬谷,35.470412,139.482574
大和_相模鉄道本線,大和,35.469924,139.461383
相模大塚_相模鉄道本線,相模大塚,35.470666,139.441232
さがみ野_相模鉄道本線,さがみ野,35.471485,139.429055
かしわ台_相模鉄道本線,かしわ台,35.466744,139.415851
海老名_相模鉄道本線,海老名,35.453381,139.392074
小田原_箱根登山鉄道線,小田原,35.256229,139.155396
箱根板橋_箱根登山鉄道線,箱根板橋,35.245169,139.145169
風祭_箱根登山鉄道線,風祭,35.246229,139.129104
入生田_箱根登山鉄道線,入生田,35.240894,139.121244
箱根湯本_箱根登山鉄道線,箱根湯本,35.233555,139.103743
塔ノ沢_箱根登山鉄道線,塔ノ沢,35.234521,139.094016
大平台_箱根登山鉄道線,大平台,35.238664,139.073849
宮ノ下_箱根登山鉄道線,宮ノ下,35.241913,139.063052
小涌谷_箱根登山鉄道線,小涌谷,35.240374,139.053162
彫刻の森_箱根登山鉄道線,彫刻の森,35.246529,139.050856
強羅_箱根登山鉄道線,強羅,35.25085,139.048162
強羅_箱根登山鉄道鋼索線,強羅,35.25085,139.048162
公園下_箱根登山鉄道鋼索線,公園下,35.249944,139.045639
公園上_箱根登山鉄道鋼索線,公園上,35.249083,139.043167
中強羅_箱根登山鉄道鋼索線,中強羅,35.248167,139.040556
上強羅_箱根登山鉄道鋼索線,上強羅,35.247306,139.038056
早雲山_箱根登山鉄道鋼索線,早雲山,35.246444,139.035611
中山_グリーンライン,中山,35.515029,139.54032
川和町_グリーンライン,川和町,35.52802,139.548745
都筑ふれあいの丘_グリーンライン,都筑ふれあいの丘,35.536583,139.561359
センター南_グリーンライン,センター南,35.545863,139.574325
センター北_グリーンライン,センター北,35.553534,139.578386
北山田_グリーンライン,北山田,35.561077,139.592258
東山田_グリーンライン,東山田,35.554302,139.604369
高田_グリーンライン,高田,35.549713,139.619944
日吉本町_グリーンライン,日吉本町,35.549883,139.633554
日吉_グリーンライン,日吉,35.553313,139.647008
西谷_相模鉄道・東京急行電鉄,西谷,35.478092,139.565721
羽沢横浜国大_相模鉄道・東京急行電鉄,羽沢横浜国大,35.481245,139.586167
新横浜_相模鉄道・東京急行電鉄,新横浜,35.507526,139.617237
新綱島_相模鉄道・東京急行電鉄,新綱島,35.536104,139.636103
日吉_相模鉄道・東京急行電鉄,日吉,35.5539,139.646944
大宮_JR川越線,大宮,35.906439,139.62405
日進_JR川越線,日進,35.931555,139.606111
西大宮_JR川越線,西大宮,35.922281,139.579797
指扇_JR川越線,指扇,35.917023,139.564951
南古谷_JR川越線,南古谷,35.903344,139.519082
川越_JR川越線,川越,35.906742,139.483078
西川越_JR川越線,西川越,35.91909,139.459746
的場_JR川越線,的場,35.917478,139.435376
笠幡_JR川越線,笠幡,35.907551,139.40622
武蔵高萩_JR川越線,武蔵高萩,35.901729,139.371123
高麗川_JR川越線,高麗川,35.896328,139.33809
大宮_埼玉新都市交通伊奈線,大宮,35.90751,139.62254
鉄道博物館_埼玉新都市交通伊奈線,鉄道博物館,35.920271,139.617796
加茂宮_埼玉新都市交通伊奈線,加茂宮,35.93568,139.616688
東宮原_埼玉新都市交通伊奈線,東宮原,35.94262,139.618054
今羽_埼玉新都市交通伊奈線,今羽,35.949941,139.619443
吉野原_埼玉新都市交通伊奈線,吉野原,35.957065,139.620862
原市_埼玉新都市交通伊奈線,原市,35.964072,139.622531
沼南_埼玉新都市交通伊奈線,沼南,35.971165,139.623481
丸山_埼玉新都市交通伊奈線,丸山,35.97989,139.624711
志久_埼玉新都市交通伊奈線,志久,35.991099,139.62228
伊奈中央_埼玉新都市交通伊奈線,伊奈中央,35.999537,139.617094
羽貫_埼玉新都市交通伊奈線,羽貫,36.007311,139.608608
内宿_埼玉新都市交通伊奈線,内宿,36.014163,139.599878
東武動物公園_東武日光線,東武動物公園,36.024604,139.726901
杉戸高野台_東武日光線,杉戸高野台,36.051536,139.714582
幸手_東武日光線,幸手,36.074297,139.714937
南栗橋_東武日光線,南栗橋,36.113157,139.713004
栗橋_東武日光線,栗橋,36.137034,139.693855
新古河_東武日光線,新古河,36.192686,139.686904
柳生_東武日光線,柳生,36.206756,139.659645
板倉東洋大前_東武日光線,板倉東洋大前,36.222404,139.648493
藤岡_東武日光線,藤岡,36.255628,139.64555
静和_東武日光線,静和,36.31651,139.684864
新大平下_東武日光線,新大平下,36.339024,139.701886
栃木_東武日光線,栃木,36.371912,139.731037
新栃木_東武日光線,新栃木,36.390149,139.742308
合戦場_東武日光線,合戦場,36.407647,139.741057
家中_東武日光線,家中,36.429783,139.747344
東武金崎_東武日光線,東武金崎,36.466288,139.749468
楡木_東武日光線,楡木,36.507497,139.745164
樅山_東武日光線,樅山,36.532667,139.741875
新鹿沼_東武日光線,新鹿沼,36.556998,139.74478
北鹿沼_東武日光線,北鹿沼,36.580811,139.737646
板荷_東武日光線,板荷,36.619476,139.707739
下小代_東武日光線,下小代,36.651303,139.713849
明神_東武日光線,明神,36.676566,139.712301
下今市_東武日光線,下今市,36.72563,139.692666
上今市_東武日光線,上今市,36.727962,139.681026
東武日光_東武日光線,東武日光,36.748233,139.61975
坂戸_東武越生線,坂戸,35.957181,139.394032
一本松_東武越生線,一本松,35.94008,139.370062
西大家_東武越生線,西大家,35.931698,139.356321
川角_東武越生線,川角,35.937438,139.346426
武州長瀬_東武越生線,武州長瀬,35.942023,139.325561
東毛呂_東武越生線,東毛呂,35.947058,139.315303
武州唐沢_東武越生線,武州唐沢,35.952127,139.30912
越生_東武越生線,越生,35.962559,139.299437
大宮_東武野田線,大宮,35.907599,139.624458
北大宮_東武野田線,北大宮,35.91716,139.624726
大宮公園_東武野田線,大宮公園,35.92374,139.632903
大和田_東武野田線,大和田,35.929359,139.65051
七里_東武野田線,七里,35.936464,139.665948
岩槻_東武野田線,岩槻,35.950239,139.693197
東岩槻_東武野田線,東岩槻,35.963273,139.712192
豊春_東武野田線,豊春,35.968014,139.72601
八木崎_東武野田線,八木崎,35.978376,139.741785
春日部_東武野田線,春日部,35.980095,139.752345
藤の牛島_東武野田線,藤の牛島,35.98026,139.778038
南桜井_東武野田線,南桜井,35.980441,139.807988
川間_東武野田線,川間,35.979172,139.83385
七光台_東武野田線,七光台,35.970884,139.852906
清水公園_東武野田線,清水公園,35.959364,139.85967
愛宕_東武野田線,愛宕,35.950154,139.864817
野田市_東武野田線,野田市,35.943652,139.870728
梅郷_東武野田線,梅郷,35.931575,139.891086
運河_東武野田線,運河,35.914392,139.906063
江戸川台_東武野田線,江戸川台,35.897344,139.91045
初石_東武野田線,初石,35.883783,139.917861
流山おおたかの森_東武野田線,流山おおたかの森,35.872051,139.925898
豊四季_東武野田線,豊四季,35.86657,139.93929
柏_東武野田線,柏,35.862316,139.971148
新柏_東武野田線,新柏,35.838128,139.966994
増尾_東武野田線,増尾,35.829704,139.976604
逆井_東武野田線,逆井,35.823336,139.983812
高柳_東武野田線,高柳,35.808211,139.998936
六実_東武野田線,六実,35.793715,139.999195
新鎌ヶ谷_東武野田線,新鎌ヶ谷,35.780221,139.999455
鎌ヶ谷_東武野田線,鎌ヶ谷,35.763765,139.997266
馬込沢_東武野田線,馬込沢,35.741586,139.992199
塚田_東武野田線,塚田,35.722102,139.982859
新船橋_東武野田線,新船橋,35.710993,139.979765
船橋_東武野田線,船橋,35.7021,139.98436
羽生_秩父本線,羽生,36.170345,139.533949
西羽生_秩父本線,西羽生,36.17635,139.523986
新郷_秩父本線,新郷,36.171317,139.510474
武州荒木_秩父本線,武州荒木,36.162614,139.488569
東行田_秩父本線,東行田,36.147265,139.468394
行田市_秩父本線,行田市,36.143759,139.458851
持田_秩父本線,持田,36.137615,139.44155
ソシオ流通センター_秩父本線,ソシオ流通センター,36.1365,139.424333
熊谷_秩父本線,熊谷,36.139313,139.389542
上熊谷_秩父本線,上熊谷,36.142657,139.38134
石原_秩父本線,石原,36.147612,139.368901
ひろせ野鳥の森_秩父本線,ひろせ野鳥の森,36.146242,139.352086
大麻生_秩父本線,大麻生,36.144612,139.331859
明戸_秩父本線,明戸,36.142958,139.303306
武川_秩父本線,武川,36.142197,139.281714
永田_秩父本線,永田,36.135314,139.259516
ふかや花園_秩父本線,ふかや花園,36.13185,139.250995
小前田_秩父本線,小前田,36.12895,139.222386
桜沢_秩父本線,桜沢,36.128672,139.206981
寄居_秩父本線,寄居,36.117801,139.194197
波久礼_秩父本線,波久礼,36.126728,139.158078
樋口_秩父本線,樋口,36.131076,139.122226
野上_秩父本線,野上,36.11157,139.110865
長瀞_秩父本線,長瀞,36.095462,139.112346
上長瀞_秩父本線,上長瀞,36.086169,139.11319
親鼻_秩父本線,親鼻,36.077539,139.106103
皆野_秩父本線,皆野,36.068682,139.093947
和銅黒谷_秩父本線,和銅黒谷,36.046671,139.101666
大野原_秩父本線,大野原,36.018586,139.094071
秩父_秩父本線,秩父,35.99883,139.086044
御花畑_秩父本線,御花畑,35.992369,139.083614
影森_秩父本線,影森,35.972015,139.068413
浦山口_秩父本線,浦山口,35.963922,139.058134
武州中川_秩父本線,武州中川,35.958347,139.035439
武州日野_秩父本線,武州日野,35.953867,139.021888
白久_秩父本線,白久,35.95895,138.993263
三峰口_秩父本線,三峰口,35.960075,138.978706
西所沢_西武狭山線,西所沢,35.789303,139.455959
下山口_西武狭山線,下山口,35.77941,139.441097
西武球場前_西武狭山線,西武球場前,35.77093,139.41966
吾野_西武秩父線,吾野,35.908502,139.226787
西吾野_西武秩父線,西吾野,35.927082,139.202425
正丸_西武秩父線,正丸,35.938324,139.181521
芦ヶ久保_西武秩父線,芦ヶ久保,35.976505,139.135982
横瀬_西武秩父線,横瀬,35.985548,139.097818
西武秩父_西武秩父線,西武秩父,35.990061,139.083548
木更津_JR久留里線,木更津,35.381668,139.92611
祇園_JR久留里線,祇園,35.391528,139.948111
上総清川_JR久留里線,上総清川,35.390981,139.965612
東清川_JR久留里線,東清川,35.390017,139.985847
横田_JR久留里線,横田,35.386207,140.020138
東横田_JR久留里線,東横田,35.386185,140.035995
馬来田_JR久留里線,馬来田,35.36681,140.058485
下郡_JR久留里線,下郡,35.355018,140.055372
小櫃_JR久留里線,小櫃,35.328252,140.059794
俵田_JR久留里線,俵田,35.314495,140.061386
久留里_JR久留里線,久留里,35.295812,140.075613
平山_JR久留里線,平山,35.274312,140.064682
上総松丘_JR久留里線,上総松丘,35.258226,140.064046
上総亀山_JR久留里線,上総亀山,35.233153,140.089479
千葉_JR内房線,千葉,35.613425,140.112837
本千葉_JR内房線,本千葉,35.601202,140.120987
蘇我_JR内房線,蘇我,35.582065,140.130767
浜野_JR内房線,浜野,35.551876,140.132089
八幡宿_JR内房線,八幡宿,35.536189,140.120072
五井_JR内房線,五井,35.512985,140.089522
姉ケ崎_JR内房線,姉ケ崎,35.4786,140.041749
長浦_JR内房線,長浦,35.450234,139.995478
袖ケ浦_JR内房線,袖ケ浦,35.431997,139.95788
巌根_JR内房線,巌根,35.414285,139.933229
木更津_JR内房線,木更津,35.381668,139.92611
君津_JR内房線,君津,35.333619,139.895697
青堀_JR内房線,青堀,35.330304,139.858189
大貫_JR内房線,大貫,35.291661,139.855541
佐貫町_JR内房線,佐貫町,35.260113,139.876106
上総湊_JR内房線,上総湊,35.221855,139.871016
竹岡_JR内房線,竹岡,35.197582,139.830159
浜金谷_JR内房線,浜金谷,35.168215,139.822141
保田_JR内房線,保田,35.14148,139.838114
安房勝山_JR内房線,安房勝山,35.114022,139.83339
岩井_JR内房線,岩井,35.093062,139.849839
富浦_JR内房線,富浦,35.04614,139.837811
那古船形_JR内房線,那古船形,35.028987,139.851388
館山_JR内房線,館山,34.9959,139.861888
九重_JR内房線,九重,34.99752,139.911383
千倉_JR内房線,千倉,34.976704,139.954738
千歳_JR内房線,千歳,34.991701,139.966378
南三原_JR内房線,南三原,35.021065,139.979204
和田浦_JR内房線,和田浦,35.041885,140.019569
江見_JR内房線,江見,35.062513,140.061026
太海_JR内房線,太海,35.081435,140.096229
安房鴨川_JR内房線,安房鴨川,35.107465,140.103566
千葉_JR外房線,千葉,35.613425,140.112837
本千葉_JR外房線,本千葉,35.601202,140.120987
蘇我_JR外房線,蘇我,35.582065,140.130767
鎌取_JR外房線,鎌取,35.562795,140.178583
誉田_JR外房線,誉田,35.546996,140.213748
土気_JR外房線,土気,35.530866,140.269783
大網_JR外房線,大網,35.522427,140.311111
永田_JR外房線,永田,35.503129,140.311162
本納_JR外房線,本納,35.48227,140.30758
新茂原_JR外房線,新茂原,35.449477,140.29983
茂原_JR外房線,茂原,35.426733,140.304121
八積_JR外房線,八積,35.403971,140.345367
上総一ノ宮_JR外房線,上総一ノ宮,35.373401,140.365138
東浪見_JR外房線,東浪見,35.34669,140.376706
太東_JR外房線,太東,35.319942,140.381184
長者町_JR外房線,長者町,35.295839,140.385021
三門_JR外房線,三門,35.282377,140.391567
大原_JR外房線,大原,35.251097,140.390864
浪花_JR外房線,浪花,35.222674,140.379428
御宿_JR外房線,御宿,35.188028,140.35197
勝浦_JR外房線,勝浦,35.152722,140.312142
鵜原_JR外房線,鵜原,35.140828,140.278446
上総興津_JR外房線,上総興津,35.137146,140.250487
行川アイランド_JR外房線,行川アイランド,35.11832,140.226962
安房小湊_JR外房線,安房小湊,35.128597,140.190337
安房天津_JR外房線,安房天津,35.125473,140.154487
安房鴨川_JR外房線,安房鴨川,35.107465,140.103566
佐倉_JR成田線,佐倉,35.709743,140.226722
酒々井_JR成田線,酒々井,35.731737,140.275271
成田_JR成田線,成田,35.777796,140.313853
空港第2ビル_JR成田線,空港第2ビル,35.773327,140.387871
成田空港_JR成田線,成田空港,35.763983,140.384644
久住_JR成田線,久住,35.832232,140.338929
滑河_JR成田線,滑河,35.877079,140.347871
下総神崎_JR成田線,下総神崎,35.8948,140.410657
大戸_JR成田線,大戸,35.890004,140.457828
佐原_JR成田線,佐原,35.894522,140.494074
香取_JR成田線,香取,35.897856,140.532367
水郷_JR成田線,水郷,35.885508,140.570181
小見川_JR成田線,小見川,35.849971,140.604587
笹川_JR成田線,笹川,35.839753,140.655716
下総橘_JR成田線,下総橘,35.818673,140.702273
下総豊里_JR成田線,下総豊里,35.792899,140.721011
椎柴_JR成田線,椎柴,35.765204,140.758875
松岸_JR成田線,松岸,35.739386,140.795143
成田_JR成田線我孫子支線,成田,35.777796,140.313853
下総松崎_JR成田線我孫子支線,下総松崎,35.807806,140.27749
安食_JR成田線我孫子支線,安食,35.835682,140.242051
小林_JR成田線我孫子支線,小林,35.830783,140.193028
木下_JR成田線我孫子支線,木下,35.838817,140.147954
布佐_JR成田線我孫子支線,布佐,35.849371,140.13293
新木_JR成田線我孫子支線,新木,35.862352,140.107047
湖北_JR成田線我孫子支線,湖北,35.867165,140.077959
東我孫子_JR成田線我孫子支線,東我孫子,35.868945,140.047754
我孫子_JR成田線我孫子支線,我孫子,35.87279,140.010466
大網_JR東金線,大網,35.522427,140.311111
福俵_JR東金線,福俵,35.54617,140.341904
東金_JR東金線,東金,35.560172,140.363743
求名_JR東金線,求名,35.579947,140.39626
成東_JR東金線,成東,35.608513,140.410109
千葉_JR総武本線,千葉,35.613425,140.112837
東千葉_JR総武本線,東千葉,35.617014,140.122261
都賀_JR総武本線,都賀,35.636088,140.149222
四街道_JR総武本線,四街道,35.662756,140.165023
物井_JR総武本線,物井,35.68566,140.200263
佐倉_JR総武本線,佐倉,35.709743,140.226722
南酒々井_JR総武本線,南酒々井,35.704217,140.267828
榎戸_JR総武本線,榎戸,35.683967,140.288136
八街_JR総武本線,八街,35.663228,140.317304
日向_JR総武本線,日向,35.628402,140.362447
成東_JR総武本線,成東,35.608513,140.410109
松尾_JR総武本線,松尾,35.63604,140.457587
横芝_JR総武本線,横芝,35.661739,140.490736
飯倉_JR総武本線,飯倉,35.685638,140.522328
八日市場_JR総武本線,八日市場,35.699317,140.552419
干潟_JR総武本線,干潟,35.718308,140.603304
旭_JR総武本線,旭,35.721832,140.655041
飯岡_JR総武本線,飯岡,35.729339,140.683896
倉橋_JR総武本線,倉橋,35.737836,140.714018
猿田_JR総武本線,猿田,35.747383,140.7374
松岸_JR総武本線,松岸,35.739386,140.795143
銚子_JR総武本線,銚子,35.729449,140.827557
香取_JR鹿島線,香取,35.897856,140.532367
十二橋_JR鹿島線,十二橋,35.916984,140.545707
潮来_JR鹿島線,潮来,35.936904,140.549473
延方_JR鹿島線,延方,35.958072,140.58875
鹿島神宮_JR鹿島線,鹿島神宮,35.970614,140.625676
鹿島サッカースタジアム_JR鹿島線,鹿島サッカースタジアム,35.992707,140.63606
大原_いすみ鉄道,大原,35.251097,140.390864
西大原_いすみ鉄道,西大原,35.260407,140.378029
上総東_いすみ鉄道,上総東,35.263313,140.344974
新田野_いすみ鉄道,新田野,35.276408,140.328081
国吉_いすみ鉄道,国吉,35.280497,140.314046
上総中川_いすみ鉄道,上総中川,35.282763,140.280636
城見ヶ丘_いすみ鉄道,城見ヶ丘,35.291741,140.252693
大多喜_いすみ鉄道,大多喜,35.286466,140.243833
小谷松_いすみ鉄道,小谷松,35.268938,140.251142
東総元_いすみ鉄道,東総元,35.259314,140.247381
久我原_いすみ鉄道,久我原,35.250265,140.247718
総元_いすみ鉄道,総元,35.240588,140.240413
西畑_いすみ鉄道,西畑,35.25051,140.215176
上総中野_いすみ鉄道,上総中野,35.250051,140.199571
リゾートゲートウェイ・ステーション_ディズニーリゾートライン,リゾートゲートウェイ・ステーション,35.635218,139.885166
東京ディズニーランド・ステーション_ディズニーリゾートライン,東京ディズニーランド・ステーション,35.63595,139.878657
ベイサイド・ステーション_ディズニーリゾートライン,ベイサイド・ステーション,35.627884,139.876397
東京ディズニーシー・ステーション_ディズニーリゾートライン,東京ディズニーシー・ステーション,35.627359,139.889502
千葉中央_京成千原線,千葉中央,35.607354,140.117809
千葉寺_京成千原線,千葉寺,35.590311,140.132236
大森台_京成千原線,大森台,35.584126,140.149398
学園前_京成千原線,学園前,35.560364,140.158416
おゆみ野_京成千原線,おゆみ野,35.550029,140.166264
ちはら台_京成千原線,ちはら台,35.534017,140.17029
京成津田沼_京成千葉線,京成津田沼,35.68364,140.024823
京成幕張本郷_京成千葉線,京成幕張本郷,35.672551,140.042091
京成幕張_京成千葉線,京成幕張,35.66078,140.05591
検見川_京成千葉線,検見川,35.652512,140.066656
京成稲毛_京成千葉線,京成稲毛,35.637783,140.085505
みどり台_京成千葉線,みどり台,35.624994,140.097413
西登戸_京成千葉線,西登戸,35.617615,140.102801
新千葉_京成千葉線,新千葉,35.612455,140.108557
京成千葉_京成千葉線,京成千葉,35.6116,140.114273
千葉中央_京成千葉線,千葉中央,35.607354,140.117809
千葉みなと_千葉都市モノレール1号線,千葉みなと,35.607391,140.102495
市役所前_千葉都市モノレール1号線,市役所前,35.606878,140.107757
千葉_千葉都市モノレール1号線,千葉,35.612084,140.114136
栄町_千葉都市モノレール1号線,栄町,35.612822,140.118592
葭川公園_千葉都市モノレール1号線,葭川公園,35.608551,140.120142
県庁前_千葉都市モノレール1号線,県庁前,35.603958,140.12222
千葉_千葉都市モノレール2号線,千葉,35.612084,140.114136
千葉公園_千葉都市モノレール2号線,千葉公園,35.619774,140.117944
作草部_千葉都市モノレール2号線,作草部,35.625806,140.115314
天台_千葉都市モノレール2号線,天台,35.631447,140.112902
穴川_千葉都市モノレール2号線,穴川,35.639645,140.111849
スポーツセンター_千葉都市モノレール2号線,スポーツセンター,35.643164,140.11611
動物公園_千葉都市モノレール2号線,動物公園,35.642585,140.125437
みつわ台_千葉都市モノレール2号線,みつわ台,35.6387,140.134873
都賀_千葉都市モノレール2号線,都賀,35.635491,140.148736
桜木_千葉都市モノレール2号線,桜木,35.631308,140.160935
小倉台_千葉都市モノレール2号線,小倉台,35.627755,140.171873
千城台北_千葉都市モノレール2号線,千城台北,35.627436,140.181972
千城台_千葉都市モノレール2号線,千城台,35.622314,140.18856
五井_小湊鉄道,五井,35.512985,140.089522
上総村上_小湊鉄道,上総村上,35.496171,140.100355
海士有木_小湊鉄道,海士有木,35.481729,140.124264
上総三又_小湊鉄道,上総三又,35.46592,140.12672
上総山田_小湊鉄道,上総山田,35.454105,140.126128
光風台_小湊鉄道,光風台,35.439662,140.114174
馬立_小湊鉄道,馬立,35.423795,140.114719
上総牛久_小湊鉄道,上総牛久,35.400213,140.142255
上総川間_小湊鉄道,上総川間,35.388047,140.150968
上総鶴舞_小湊鉄道,上総鶴舞,35.381346,140.165006
上総久保_小湊鉄道,上総久保,35.367481,140.154438
高滝_小湊鉄道,高滝,35.353074,140.150246
里見_小湊鉄道,里見,35.336685,140.145505
飯給_小湊鉄道,飯給,35.320512,140.142358
月崎_小湊鉄道,月崎,35.302203,140.139394
上総大久保_小湊鉄道,上総大久保,35.283367,140.145924
養老渓谷_小湊鉄道,養老渓谷,35.266409,140.159382
上総中野_小湊鉄道,上総中野,35.250051,140.199571
ユーカリが丘_山万ユーカリが丘線,ユーカリが丘,35.722247,140.157019
地区センター_山万ユーカリが丘線,地区センター,35.726225,140.155041
公園_山万ユーカリが丘線,公園,35.730758,140.153755
女子大_山万ユーカリが丘線,女子大,35.738357,140.155054
中学校_山万ユーカリが丘線,中学校,35.740123,140.14841
井野_山万ユーカリが丘線,井野,35.732605,140.148497
松戸_京成松戸線,松戸,35.784472,139.900779
上本郷_京成松戸線,上本郷,35.789524,139.916031
松戸新田_京成松戸線,松戸新田,35.790652,139.922833
みのり台_京成松戸線,みのり台,35.789346,139.929466
八柱_京成松戸線,八柱,35.791394,139.937362
常盤平_京成松戸線,常盤平,35.803191,139.949522
五香_京成松戸線,五香,35.797281,139.965796
元山_京成松戸線,元山,35.790229,139.975831
くぬぎ山_京成松戸線,くぬぎ山,35.782343,139.975707
北初富_京成松戸線,北初富,35.77728,139.991978
新鎌ヶ谷_京成松戸線,新鎌ヶ谷,35.77922,139.998661
初富_京成松戸線,初富,35.771992,140.000493
鎌ヶ谷大仏_京成松戸線,鎌ヶ谷大仏,35.757827,140.013823
二和向台_京成松戸線,二和向台,35.753825,140.023731
三咲_京成松戸線,三咲,35.749217,140.028514
滝不動_京成松戸線,滝不動,35.737957,140.02622
高根公団_京成松戸線,高根公団,35.730436,140.029382
高根木戸_京成松戸線,高根木戸,35.726625,140.034923
北習志野_京成松戸線,北習志野,35.721328,140.042195
習志野_京成松戸線,習志野,35.715293,140.042787
薬園台_京成松戸線,薬園台,35.710271,140.037599
前原_京成松戸線,前原,35.700666,140.027542
新津田沼_京成松戸線,新津田沼,35.690184,140.023745
京成津田沼_京成松戸線,京成津田沼,35.68364,140.024823
西船橋_東葉高速鉄道,西船橋,35.707127,139.958972
東海神_東葉高速鉄道,東海神,35.705888,139.980343
飯山満_東葉高速鉄道,飯山満,35.71407,140.0223
北習志野_東葉高速鉄道,北習志野,35.721674,140.04236
船橋日大前_東葉高速鉄道,船橋日大前,35.726931,140.058962
八千代緑が丘_東葉高速鉄道,八千代緑が丘,35.728884,140.073461
八千代中央_東葉高速鉄道,八千代中央,35.727807,140.103713
村上_東葉高速鉄道,村上,35.72371,140.118375
東葉勝田台_東葉高速鉄道,東葉勝田台,35.715458,140.126075
馬橋_流鉄流山線,馬橋,35.811949,139.917042
幸谷_流鉄流山線,幸谷,35.826642,139.919912
小金城趾_流鉄流山線,小金城趾,35.83601,139.916887
鰭ヶ崎_流鉄流山線,鰭ヶ崎,35.840948,139.911121
平和台_流鉄流山線,平和台,35.85123,139.901108
流山_流鉄流山線,流山,35.855771,139.901766
東成田_芝山鉄道線,東成田,35.770091,140.387225
芝山千代田_芝山鉄道線,芝山千代田,35.754248,140.399215
銚子_銚子電鉄線,銚子,35.729449,140.827557
仲ノ町_銚子電鉄線,仲ノ町,35.728813,140.833871
観音_銚子電鉄線,観音,35.728952,140.840112
本銚子_銚子電鉄線,本銚子,35.731055,140.847844
笠上黒生_銚子電鉄線,笠上黒生,35.728427,140.856893
西海鹿島_銚子電鉄線,西海鹿島,35.725131,140.860207
海鹿島_銚子電鉄線,海鹿島,35.722089,140.863096
君ヶ浜_銚子電鉄線,君ヶ浜,35.714093,140.860527
犬吠_銚子電鉄線,犬吠,35.706258,140.860935
外川_銚子電鉄線,外川,35.699314,140.857322
京成成田_京成東成田線,京成成田,35.776308,140.315473
東成田_京成東成田線,東成田,35.770091,140.387225
取手_JR常磐線,取手,35.89553,140.063004
藤代_JR常磐線,藤代,35.920565,140.118251
龍ケ崎市_JR常磐線,龍ケ崎市,35.930066,140.138217
牛久_JR常磐線,牛久,35.975314,140.141039
ひたち野うしく_JR常磐線,ひたち野うしく,36.007996,140.158408
荒川沖_JR常磐線,荒川沖,36.030552,140.16592
土浦_JR常磐線,土浦,36.078644,140.206237
神立_JR常磐線,神立,36.120424,140.248615
高浜_JR常磐線,高浜,36.163882,140.294745
石岡_JR常磐線,石岡,36.191554,140.279709
羽鳥_JR常磐線,羽鳥,36.247661,140.28679
岩間_JR常磐線,岩間,36.295508,140.276493
友部_JR常磐線,友部,36.350597,140.306306
内原_JR常磐線,内原,36.370111,140.35282
赤塚_JR常磐線,赤塚,36.381755,140.415248
偕楽園_JR常磐線,偕楽園,36.373041,140.456292
水戸_JR常磐線,水戸,36.370911,140.47676
勝田_JR常磐線,勝田,36.394033,140.524482
佐和_JR常磐線,佐和,36.430409,140.540477
東海_JR常磐線,東海,36.465378,140.565835
大甕_JR常磐線,大甕,36.513052,140.619362
常陸多賀_JR常磐線,常陸多賀,36.552145,140.632682
日立_JR常磐線,日立,36.590408,140.661883
小木津_JR常磐線,小木津,36.636533,140.67526
十王_JR常磐線,十王,36.671385,140.68623
高萩_JR常磐線,高萩,36.714873,140.716707
南中郷_JR常磐線,南中郷,36.753501,140.729028
磯原_JR常磐線,磯原,36.790684,140.746366
大津港_JR常磐線,大津港,36.846085,140.778001
勿来_JR常磐線,勿来,36.883883,140.786506
植田_JR常磐線,植田,36.920649,140.796468
泉_JR常磐線,泉,36.955602,140.854125
湯本_JR常磐線,湯本,37.006922,140.849884
内郷_JR常磐線,内郷,37.035895,140.855005
いわき_JR常磐線,いわき,37.058241,140.892273
草野_JR常磐線,草野,37.073863,140.947243
四ツ倉_JR常磐線,四ツ倉,37.102338,140.980907
久ノ浜_JR常磐線,久ノ浜,37.142465,140.995741
末続_JR常磐線,末続,37.172156,140.995565
広野_JR常磐線,広野,37.21157,140.998769
Jヴィレッジ_JR常磐線,Jヴィレッジ,37.242943,141.007625
木戸_JR常磐線,木戸,37.257875,141.00247
竜田_JR常磐線,竜田,37.282485,141.002822
富岡_JR常磐線,富岡,37.33396,141.02276
夜ノ森_JR常磐線,夜ノ森,37.365761,140.991988
大野_JR常磐線,大野,37.409367,140.984163
双葉_JR常磐線,双葉,37.453795,141.005815
浪江_JR常磐線,浪江,37.492291,140.989521
桃内_JR常磐線,桃内,37.528661,140.984352
小高_JR常磐線,小高,37.56298,140.996375
磐城太田_JR常磐線,磐城太田,37.605114,140.991407
原ノ町_JR常磐線,原ノ町,37.6379,140.971161
鹿島_JR常磐線,鹿島,37.702827,140.970062
日立木_JR常磐線,日立木,37.756081,140.934642
相馬_JR常磐線,相馬,37.802455,140.925713
駒ヶ嶺_JR常磐線,駒ヶ嶺,37.842353,140.925075
新地_JR常磐線,新地,37.881123,140.926501
坂元_JR常磐線,坂元,37.928454,140.912727
山下_JR常磐線,山下,37.967292,140.900688
浜吉田_JR常磐線,浜吉田,38.002195,140.890083
亘理_JR常磐線,亘理,38.039776,140.861317
逢隈_JR常磐線,逢隈,38.067584,140.854669
岩沼_JR常磐線,岩沼,38.11205,140.863783
小山_JR水戸線,小山,36.312747,139.806241
小田林_JR水戸線,小田林,36.300775,139.85353
結城_JR水戸線,結城,36.298056,139.873028
東結城_JR水戸線,東結城,36.296554,139.891485
川島_JR水戸線,川島,36.295918,139.916382
玉戸_JR水戸線,玉戸,36.298547,139.93845
下館_JR水戸線,下館,36.304197,139.97866
新治_JR水戸線,新治,36.328082,140.039076
大和_JR水戸線,大和,36.345567,140.073216
岩瀬_JR水戸線,岩瀬,36.359377,140.108739
羽黒_JR水戸線,羽黒,36.355292,140.142947
福原_JR水戸線,福原,36.351507,140.187249
稲田_JR水戸線,稲田,36.368903,140.21501
笠間_JR水戸線,笠間,36.373056,140.246515
宍戸_JR水戸線,宍戸,36.344763,140.288243
友部_JR水戸線,友部,36.350597,140.306306
水戸_JR水郡線,水戸,36.370911,140.47676
常陸青柳_JR水郡線,常陸青柳,36.383582,140.484495
常陸津田_JR水郡線,常陸津田,36.404171,140.482914
後台_JR水郡線,後台,36.423767,140.489899
下菅谷_JR水郡線,下菅谷,36.435394,140.494021
中菅谷_JR水郡線,中菅谷,36.445662,140.492626
上菅谷_JR水郡線,上菅谷,36.455378,140.492659
常陸鴻巣_JR水郡線,常陸鴻巣,36.472414,140.467455
瓜連_JR水郡線,瓜連,36.497805,140.450438
静_JR水郡線,静,36.506012,140.438103
常陸大宮_JR水郡線,常陸大宮,36.547554,140.412431
玉川村_JR水郡線,玉川村,36.579088,140.374334
野上原_JR水郡線,野上原,36.605879,140.390127
山方宿_JR水郡線,山方宿,36.6246,140.401244
中舟生_JR水郡線,中舟生,36.645683,140.392242
下小川_JR水郡線,下小川,36.668975,140.387021
西金_JR水郡線,西金,36.69548,140.386468
上小川_JR水郡線,上小川,36.719216,140.378604
袋田_JR水郡線,袋田,36.754718,140.379583
常陸大子_JR水郡線,常陸大子,36.770657,140.350855
下野宮_JR水郡線,下野宮,36.815744,140.375282
矢祭山_JR水郡線,矢祭山,36.84978,140.395278
東館_JR水郡線,東館,36.870264,140.423314
南石井_JR水郡線,南石井,36.894625,140.416902
磐城石井_JR水郡線,磐城石井,36.904516,140.415321
磐城塙_JR水郡線,磐城塙,36.95862,140.41205
近津_JR水郡線,近津,37.000487,140.393699
中豊_JR水郡線,中豊,37.022479,140.393253
磐城棚倉_JR水郡線,磐城棚倉,37.035127,140.384423
磐城浅川_JR水郡線,磐城浅川,37.079787,140.414329
里白石_JR水郡線,里白石,37.104195,140.416655
磐城石川_JR水郡線,磐城石川,37.140635,140.443969
野木沢_JR水郡線,野木沢,37.175224,140.42097
川辺沖_JR水郡線,川辺沖,37.192794,140.405723
泉郷_JR水郡線,泉郷,37.214494,140.405289
川東_JR水郡線,川東,37.270119,140.40622
小塩江_JR水郡線,小塩江,37.295533,140.430246
谷田川_JR水郡線,谷田川,37.31372,140.431117
磐城守山_JR水郡線,磐城守山,37.330776,140.406485
安積永盛_JR水郡線,安積永盛,37.356967,140.368943
南酒出_JR水郡線,南酒出,36.477361,140.498471
額田_JR水郡線,額田,36.485705,140.503462
河合_JR水郡線,河合,36.508241,140.517118
谷河原_JR水郡線,谷河原,36.519782,140.52502
常陸太田_JR水郡線,常陸太田,36.531225,140.52777
下館_真岡鐵道,下館,36.304275,139.978582
下館二高前_真岡鐵道,下館二高前,36.319137,139.972193
折本_真岡鐵道,折本,36.340684,139.971232
ひぐち_真岡鐵道,ひぐち,36.357882,139.970057
久下田_真岡鐵道,久下田,36.37606,139.971756
寺内_真岡鐵道,寺内,36.410876,139.980077
真岡_真岡鐵道,真岡,36.439144,140.002632
北真岡_真岡鐵道,北真岡,36.44909,140.014061
西田井_真岡鐵道,西田井,36.453407,140.04876
北山_真岡鐵道,北山,36.455665,140.067708
益子_真岡鐵道,益子,36.462965,140.088526
七井_真岡鐵道,七井,36.491814,140.09439
多田羅_真岡鐵道,多田羅,36.515922,140.089795
市塙_真岡鐵道,市塙,36.538029,140.110218
笹原田_真岡鐵道,笹原田,36.533911,140.144837
天矢場_真岡鐵道,天矢場,36.529292,140.156109
茂木_真岡鐵道,茂木,36.530851,140.181382
宮脇_筑波山鋼索鉄道線,宮脇,36.214052,140.099675
筑波山頂_筑波山鋼索鉄道線,筑波山頂,36.225832,140.101157
勝田_ひたちなか海浜鉄道湊線,勝田,36.394033,140.524482
工機前_ひたちなか海浜鉄道湊線,工機前,36.388099,140.524542
金上_ひたちなか海浜鉄道湊線,金上,36.382319,140.534132
中根_ひたちなか海浜鉄道湊線,中根,36.367488,140.562138
高田の鉄橋_ひたちなか海浜鉄道湊線,高田の鉄橋,36.352556,140.580028
那珂湊_ひたちなか海浜鉄道湊線,那珂湊,36.345453,140.587716
殿山_ひたちなか海浜鉄道湊線,殿山,36.349497,140.601087
平磯_ひたちなか海浜鉄道湊線,平磯,36.357546,140.607575
美乃浜学園_ひたちなか海浜鉄道湊線,美乃浜学園,36.37263,140.616958
磯崎_ひたちなか海浜鉄道湊線,磯崎,36.37781,140.617934
阿字ヶ浦_ひたちなか海浜鉄道湊線,阿字ヶ浦,36.383529,140.61244
取手_関東鉄道常総線,取手,35.89553,140.063004
西取手_関東鉄道常総線,西取手,35.908584,140.059437
寺原_関東鉄道常総線,寺原,35.911825,140.054551
新取手_関東鉄道常総線,新取手,35.917657,140.0421
ゆめみ野_関東鉄道常総線,ゆめみ野,35.921129,140.034789
稲戸井_関東鉄道常総線,稲戸井,35.926142,140.02269
戸頭_関東鉄道常総線,戸頭,35.92951,140.014263
南守谷_関東鉄道常総線,南守谷,35.934224,140.00212
守谷_関東鉄道常総線,守谷,35.950626,139.992209
新守谷_関東鉄道常総線,新守谷,35.966344,139.985864
小絹_関東鉄道常総線,小絹,35.981151,139.983328
水海道_関東鉄道常総線,水海道,36.017828,139.99137
北水海道_関東鉄道常総線,北水海道,36.032123,139.9928
中妻_関東鉄道常総線,中妻,36.047291,139.990714
三妻_関東鉄道常総線,三妻,36.073507,139.983052
南石下_関東鉄道常総線,南石下,36.102262,139.973938
石下_関東鉄道常総線,石下,36.117041,139.974323
玉村_関東鉄道常総線,玉村,36.135499,139.969959
宗道_関東鉄道常総線,宗道,36.153589,139.970573
下妻_関東鉄道常総線,下妻,36.182325,139.964461
大宝_関東鉄道常総線,大宝,36.203159,139.970193
騰波ノ江_関東鉄道常総線,騰波ノ江,36.223232,139.976274
黒子_関東鉄道常総線,黒子,36.247396,139.97514
大田郷_関東鉄道常総線,大田郷,36.278258,139.959724
下館_関東鉄道常総線,下館,36.303959,139.978268
佐貫_関東鉄道竜ヶ崎線,佐貫,35.929636,140.138292
入地_関東鉄道竜ヶ崎線,入地,35.91899,140.157266
竜ヶ崎_関東鉄道竜ヶ崎線,竜ヶ崎,35.908586,140.178937
水戸_鹿島臨海鉄道線,水戸,36.370911,140.47676
東水戸_鹿島臨海鉄道線,東水戸,36.361746,140.516012
常澄_鹿島臨海鉄道線,常澄,36.340683,140.558997
大洗_鹿島臨海鉄道線,大洗,36.315342,140.562675
涸沼_鹿島臨海鉄道線,涸沼,36.266054,140.527356
鹿島旭_鹿島臨海鉄道線,鹿島旭,36.224658,140.512601
徳宿_鹿島臨海鉄道線,徳宿,36.190356,140.514441
新鉾田_鹿島臨海鉄道線,新鉾田,36.152697,140.520408
北浦湖畔_鹿島臨海鉄道線,北浦湖畔,36.120453,140.536841
大洋_鹿島臨海鉄道線,大洋,36.108341,140.576413
鹿島灘_鹿島臨海鉄道線,鹿島灘,36.075568,140.596789
鹿島大野_鹿島臨海鉄道線,鹿島大野,36.050674,140.609855
長者ヶ浜潮騒はまなす公園前_鹿島臨海鉄道線,長者ヶ浜潮騒はまなす公園前,36.031336,140.618849
荒野台_鹿島臨海鉄道線,荒野台,36.016804,140.625194
鹿島サッカースタジアム_鹿島臨海鉄道線,鹿島サッカースタジアム,35.992707,140.63606
新前橋_JR両毛線,新前橋,36.378936,139.046924
前橋_JR両毛線,前橋,36.383399,139.072833
前橋大島_JR両毛線,前橋大島,36.370585,139.109557
駒形_JR両毛線,駒形,36.354145,139.139483
伊勢崎_JR両毛線,伊勢崎,36.326849,139.193704
国定_JR両毛線,国定,36.359018,139.242463
岩宿_JR両毛線,岩宿,36.395861,139.297058
桐生_JR両毛線,桐生,36.41109,139.33319
小俣_JR両毛線,小俣,36.37496,139.374416
山前_JR両毛線,山前,36.347369,139.411322
足利_JR両毛線,足利,36.331888,139.456295
あしかがフラワーパーク_JR両毛線,あしかがフラワーパーク,36.315168,139.518408
富田_JR両毛線,富田,36.316209,139.52865
佐野_JR両毛線,佐野,36.316668,139.578858
岩舟_JR両毛線,岩舟,36.326561,139.657955
大平下_JR両毛線,大平下,36.344315,139.697264
栃木_JR両毛線,栃木,36.371912,139.731037
思川_JR両毛線,思川,36.351044,139.781079
小山_JR両毛線,小山,36.312747,139.806241
宇都宮_JR日光線,宇都宮,36.559246,139.898389
鶴田_JR日光線,鶴田,36.538319,139.858818
鹿沼_JR日光線,鹿沼,36.571222,139.762961
文挟_JR日光線,文挟,36.637716,139.727778
下野大沢_JR日光線,下野大沢,36.686427,139.732367
今市_JR日光線,今市,36.720388,139.687348
日光_JR日光線,日光,36.7474,139.62215
黒磯_JR東北本線,黒磯,36.970128,140.060204
高久_JR東北本線,高久,36.996572,140.087346
黒田原_JR東北本線,黒田原,37.022848,140.119586
豊原_JR東北本線,豊原,37.055014,140.155066
白坂_JR東北本線,白坂,37.09457,140.184388
新白河_JR東北本線,新白河,37.12331,140.188969
白河_JR東北本線,白河,37.129692,140.213742
久田野_JR東北本線,久田野,37.137048,140.259458
泉崎_JR東北本線,泉崎,37.15835,140.299026
矢吹_JR東北本線,矢吹,37.205286,140.327983
鏡石_JR東北本線,鏡石,37.250733,140.346812
須賀川_JR東北本線,須賀川,37.300335,140.372014
安積永盛_JR東北本線,安積永盛,37.356967,140.368943
郡山_JR東北本線,郡山,37.398187,140.389363
日和田_JR東北本線,日和田,37.446405,140.388333
五百川_JR東北本線,五百川,37.482887,140.38785
本宮_JR東北本線,本宮,37.514177,140.399534
杉田_JR東北本線,杉田,37.563307,140.413663
二本松_JR東北本線,二本松,37.589598,140.435389
安達_JR東北本線,安達,37.611724,140.466042
松川_JR東北本線,松川,37.653825,140.48442
金谷川_JR東北本線,金谷川,37.680526,140.452244
南福島_JR東北本線,南福島,37.723665,140.456074
福島_JR東北本線,福島,37.754123,140.45968
東福島_JR東北本線,東福島,37.800447,140.478058
伊達_JR東北本線,伊達,37.823917,140.493255
桑折_JR東北本線,桑折,37.855258,140.517508
藤田_JR東北本線,藤田,37.879062,140.539722
貝田_JR東北本線,貝田,37.908226,140.58106
越河_JR東北本線,越河,37.933616,140.604572
白石_JR東北本線,白石,38.003581,140.626164
東白石_JR東北本線,東白石,38.034935,140.651109
北白川_JR東北本線,北白川,38.032607,140.692613
大河原_JR東北本線,大河原,38.047491,140.740142
船岡_JR東北本線,船岡,38.059298,140.767366
槻木_JR東北本線,槻木,38.07864,140.809992
岩沼_JR東北本線,岩沼,38.11205,140.863783
館腰_JR東北本線,館腰,38.142987,140.880208
名取_JR東北本線,名取,38.173017,140.882753
南仙台_JR東北本線,南仙台,38.197384,140.883295
太子堂_JR東北本線,太子堂,38.21711,140.883436
長町_JR東北本線,長町,38.226797,140.885986
仙台_JR東北本線,仙台,38.260027,140.882158
東仙台_JR東北本線,東仙台,38.276512,140.920204
岩切_JR東北本線,岩切,38.300773,140.954617
陸前山王_JR東北本線,陸前山王,38.299586,140.97917
国府多賀城_JR東北本線,国府多賀城,38.300933,140.99411
塩釜_JR東北本線,塩釜,38.309584,141.009564
松島_JR東北本線,松島,38.379892,141.065982
愛宕_JR東北本線,愛宕,38.397371,141.065
品井沼_JR東北本線,品井沼,38.431539,141.082408
鹿島台_JR東北本線,鹿島台,38.474708,141.097964
松山町_JR東北本線,松山町,38.512332,141.075187
小牛田_JR東北本線,小牛田,38.541111,141.064355
田尻_JR東北本線,田尻,38.596246,141.058912
瀬峰_JR東北本線,瀬峰,38.655153,141.07383
梅ヶ沢_JR東北本線,梅ヶ沢,38.681678,141.085278
新田_JR東北本線,新田,38.711475,141.119428
石越_JR東北本線,石越,38.768778,141.15906
油島_JR東北本線,油島,38.797113,141.175706
花泉_JR東北本線,花泉,38.83331,141.180014
清水原_JR東北本線,清水原,38.854915,141.156576
有壁_JR東北本線,有壁,38.867371,141.120994
一ノ関_JR東北本線,一ノ関,38.926514,141.138177
山ノ目_JR東北本線,山ノ目,38.951253,141.131921
平泉_JR東北本線,平泉,38.987935,141.117786
前沢_JR東北本線,前沢,39.048686,141.12624
陸中折居_JR東北本線,陸中折居,39.094185,141.140864
水沢_JR東北本線,水沢,39.138998,141.146395
金ヶ崎_JR東北本線,金ヶ崎,39.199615,141.112894
六原_JR東北本線,六原,39.227894,141.097605
北上_JR東北本線,北上,39.281196,141.121221
村崎野_JR東北本線,村崎野,39.323027,141.120442
花巻_JR東北本線,花巻,39.393182,141.110458
花巻空港_JR東北本線,花巻空港,39.442639,141.127625
石鳥谷_JR東北本線,石鳥谷,39.490919,141.146861
日詰_JR東北本線,日詰,39.538734,141.160637
紫波中央_JR東北本線,紫波中央,39.5549,141.15995
古館_JR東北本線,古館,39.580844,141.154575
矢幅_JR東北本線,矢幅,39.613293,141.148299
岩手飯岡_JR東北本線,岩手飯岡,39.65373,141.146861
仙北町_JR東北本線,仙北町,39.687919,141.148814
盛岡_JR東北本線,盛岡,39.701547,141.136599
八戸_JR東北本線,八戸,40.5092,141.431499
高城町_JR東北本線,高城町,38.382731,141.07344
宝積寺_JR烏山線,宝積寺,36.631703,139.979487
下野花岡_JR烏山線,下野花岡,36.649965,140.008606
仁井田_JR烏山線,仁井田,36.657271,140.029573
鴻野山_JR烏山線,鴻野山,36.666495,140.051656
大金_JR烏山線,大金,36.656275,140.095656
小塙_JR烏山線,小塙,36.643095,140.11656
滝_JR烏山線,滝,36.648558,140.138152
烏山_JR烏山線,烏山,36.650455,140.15507
桐生_わたらせ渓谷鐵道線,桐生,36.41109,139.33319
下新田_わたらせ渓谷鐵道線,下新田,36.407776,139.315085
相老_わたらせ渓谷鐵道線,相老,36.410216,139.304449
運動公園_わたらせ渓谷鐵道線,運動公園,36.42038,139.300852
大間々_わたらせ渓谷鐵道線,大間々,36.434617,139.277559
上神梅_わたらせ渓谷鐵道線,上神梅,36.470053,139.257696
本宿_わたらせ渓谷鐵道線,本宿,36.481391,139.259306
水沼_わたらせ渓谷鐵道線,水沼,36.499866,139.277579
花輪_わたらせ渓谷鐵道線,花輪,36.520809,139.30769
中野_わたらせ渓谷鐵道線,中野,36.524243,139.317219
小中_わたらせ渓谷鐵道線,小中,36.535644,139.337842
神戸_わたらせ渓谷鐵道線,神戸,36.537467,139.35653
沢入_わたらせ渓谷鐵道線,沢入,36.58064,139.396314
原向_わたらせ渓谷鐵道線,原向,36.617284,139.420593
通洞_わたらせ渓谷鐵道線,通洞,36.636837,139.439671
足尾_わたらせ渓谷鐵道線,足尾,36.641853,139.447773
間藤_わたらせ渓谷鐵道線,間藤,36.653507,139.450078
館林_東武佐野線,館林,36.246606,139.527811
渡瀬_東武佐野線,渡瀬,36.261807,139.537515
田島_東武佐野線,田島,36.290229,139.564943
佐野市_東武佐野線,佐野市,36.306153,139.57583
佐野_東武佐野線,佐野,36.316884,139.578826
堀米_東武佐野線,堀米,36.328467,139.580279
吉水_東武佐野線,吉水,36.345621,139.579337
田沼_東武佐野線,田沼,36.367094,139.581919
多田_東武佐野線,多田,36.37809,139.592984
葛生_東武佐野線,葛生,36.397937,139.609207
新栃木_東武宇都宮線,新栃木,36.390149,139.742308
野州平川_東武宇都宮線,野州平川,36.401554,139.753764
野州大塚_東武宇都宮線,野州大塚,36.408759,139.772574
壬生_東武宇都宮線,壬生,36.422472,139.80496
国谷_東武宇都宮線,国谷,36.451442,139.823824
おもちゃのまち_東武宇都宮線,おもちゃのまち,36.466774,139.829506
安塚_東武宇都宮線,安塚,36.485678,139.835572
西川田_東武宇都宮線,西川田,36.514227,139.850247
江曽島_東武宇都宮線,江曽島,36.530951,139.860818
南宇都宮_東武宇都宮線,南宇都宮,36.543783,139.872017
東武宇都宮_東武宇都宮線,東武宇都宮,36.559373,139.880427
下今市_東武鬼怒川線,下今市,36.72563,139.692666
大谷向_東武鬼怒川線,大谷向,36.73224,139.691916
大桑_東武鬼怒川線,大桑,36.76079,139.713546
新高徳_東武鬼怒川線,新高徳,36.779816,139.710623
小佐越_東武鬼怒川線,小佐越,36.802252,139.706465
東武ワールドスクウェア_東武鬼怒川線,東武ワールドスクウェア,36.808333,139.709083
鬼怒川温泉_東武鬼怒川線,鬼怒川温泉,36.822622,139.716552
鬼怒川公園_東武鬼怒川線,鬼怒川公園,36.841,139.72287
新藤原_東武鬼怒川線,新藤原,36.852505,139.732963
新藤原_野岩鉄道会津鬼怒川線,新藤原,36.852505,139.732963
龍王峡_野岩鉄道会津鬼怒川線,龍王峡,36.860909,139.718542
川治温泉_野岩鉄道会津鬼怒川線,川治温泉,36.884036,139.703775
川治湯元_野岩鉄道会津鬼怒川線,川治湯元,36.895126,139.702772
湯西川温泉_野岩鉄道会津鬼怒川線,湯西川温泉,36.929482,139.68824
中三依温泉_野岩鉄道会津鬼怒川線,中三依温泉,36.985843,139.69614
上三依塩原温泉口_野岩鉄道会津鬼怒川線,上三依塩原温泉口,37.014461,139.727168
男鹿高原_野岩鉄道会津鬼怒川線,男鹿高原,37.04784,139.723845
会津高原尾瀬口_野岩鉄道会津鬼怒川線,会津高原尾瀬口,37.089949,139.705067
宇都宮駅東口_宇都宮芳賀ライトレール,宇都宮駅東口,36.559117,139.899546
東宿郷_宇都宮芳賀ライトレール,東宿郷,36.558288,139.904044
駅東公園前_宇都宮芳賀ライトレール,駅東公園前,36.557993,139.90811
峰_宇都宮芳賀ライトレール,峰,36.557565,139.916261
陽東3丁目_宇都宮芳賀ライトレール,陽東3丁目,36.557303,139.92318
宇都宮大学陽東キャンパス_宇都宮芳賀ライトレール,宇都宮大学陽東キャンパス,36.55707,139.930252
平石_宇都宮芳賀ライトレール,平石,36.55504,139.939274
平石中央小学校前_宇都宮芳賀ライトレール,平石中央小学校前,36.554841,139.944702
飛山城跡_宇都宮芳賀ライトレール,飛山城跡,36.548359,139.963424
清陵高校前_宇都宮芳賀ライトレール,清陵高校前,36.544945,139.97632
清原地区市民センター前_宇都宮芳賀ライトレール,清原地区市民センター前,36.547618,139.984265
グリーンスタジアム前_宇都宮芳賀ライトレール,グリーンスタジアム前,36.555832,139.982512
ゆいの杜西_宇都宮芳賀ライトレール,ゆいの杜西,36.567465,139.987215
ゆいの杜中央_宇都宮芳賀ライトレール,ゆいの杜中央,36.567748,139.99293
ゆいの杜東_宇都宮芳賀ライトレール,ゆいの杜東,36.567635,139.998762
芳賀台_宇都宮芳賀ライトレール,芳賀台,36.566146,140.006464
芳賀町工業団地管理センター前_宇都宮芳賀ライトレール,芳賀町工業団地管理センター前,36.564952,140.010687
かしの森公園前_宇都宮芳賀ライトレール,かしの森公園前,36.572385,140.014602
芳賀・高根沢工業団地_宇都宮芳賀ライトレール,芳賀・高根沢工業団地,36.578638,140.011956
高崎_JR上越線,高崎,36.322239,139.012354
高崎問屋町_JR上越線,高崎問屋町,36.346097,139.017089
井野_JR上越線,井野,36.357457,139.023247
新前橋_JR上越線,新前橋,36.378936,139.046924
群馬総社_JR上越線,群馬総社,36.415574,139.032221
八木原_JR上越線,八木原,36.463738,139.019239
渋川_JR上越線,渋川,36.491251,139.008786
敷島_JR上越線,敷島,36.537636,139.033897
津久田_JR上越線,津久田,36.561063,139.042806
