stop_id,stop_name,stop_lat,stop_lon
東京,東京,35.681391,139.766103
神田,神田,35.693587,139.770899
御茶ノ水,御茶ノ水,35.700614,139.763952
水道橋,水道橋,35.703398,139.75516
飯田橋,飯田橋,35.702927,139.744999
市ケ谷,市ケ谷,35.691295,139.736642
四ツ谷,四ツ谷,35.686032,139.72955
信濃町,信濃町,35.680031,139.720729
千駄ケ谷,千駄ケ谷,35.681231,139.711644
代々木,代々木,35.683218,139.701666
新宿,新宿,35.689729,139.700464
大久保,大久保,35.700784,139.69732
東中野,東中野,35.706891,139.682987
中野,中野,36.524243,139.317219
高円寺,高円寺,35.705327,139.649664
阿佐ケ谷,阿佐ケ谷,35.704818,139.635868
荻窪,荻窪,35.704304,139.620116
西荻窪,西荻窪,35.703842,139.599361
吉祥寺,吉祥寺,35.702291,139.580306
三鷹,三鷹,35.702683,139.560325
武蔵境,武蔵境,35.702083,139.543402
東小金井,東小金井,35.701643,139.524837
武蔵小金井,武蔵小金井,35.701337,139.506483
国分寺,国分寺,35.700836,139.479547
西国分寺,西国分寺,35.699744,139.465994
国立,国立,35.69923,139.44634
立川,立川,35.698202,139.413704
日野,日野,35.679244,139.39393
豊田,豊田,35.659502,139.381495
八王子,八王子,35.655555,139.338998
西八王子,西八王子,35.656621,139.31264
高尾,高尾,35.641645,139.281551
相模湖,相模湖,35.617335,139.1885
藤野,藤野,35.615918,139.15239
上野原,上野原,35.618747,139.115787
四方津,四方津,35.614252,139.072572
梁川,梁川,35.605271,139.038076
鳥沢,鳥沢,35.608118,139.003345
猿橋,猿橋,35.61288,138.968388
大月,大月,35.613222,138.942729
初狩,初狩,35.594274,138.883966
笹子,笹子,35.603921,138.825205
甲斐大和,甲斐大和,35.639364,138.781632
勝沼ぶどう郷,勝沼ぶどう郷,35.67279,138.74323
塩山,塩山,35.705327,138.734796
東山梨,東山梨,35.694313,138.703026
山梨市,山梨市,35.684961,138.683003
春日居町,春日居町,35.673491,138.659
石和温泉,石和温泉,35.657603,138.634577
酒折,酒折,35.659486,138.598852
甲府,甲府,35.667054,138.569015
竜王,竜王,35.668764,138.519298
塩崎,塩崎,35.687734,138.487521
韮崎,韮崎,35.709711,138.451357
新府,新府,35.736802,138.433093
穴山,穴山,35.75107,138.413858
日野春,日野春,35.79065,138.394316
長坂,長坂,35.827061,138.366459
小淵沢,小淵沢,35.863808,138.316351
信濃境,信濃境,35.884952,138.275419
富士見,富士見,35.912183,138.238071
すずらんの里,すずらんの里,35.930288,138.211775
青柳,青柳,35.942581,138.197612
茅野,茅野,35.995062,138.151674
上諏訪,上諏訪,36.046618,138.116306
下諏訪,下諏訪,36.071949,138.084953
岡谷,岡谷,36.056693,138.045001
みどり湖,みどり湖,36.094176,137.981928
塩尻,塩尻,36.114364,137.947961
洗馬,洗馬,36.087164,137.916842
日出塩,日出塩,36.049004,137.894804
贄川,贄川,36.014008,137.86091
木曽平沢,木曽平沢,35.979108,137.832613
奈良井,奈良井,35.969476,137.816195
藪原,藪原,35.930152,137.784368
宮ノ越,宮ノ越,35.888337,137.763794
原野,原野,35.871245,137.741536
木曽福島,木曽福島,35.843669,137.69343
上松,上松,35.784068,137.693283
倉本,倉本,35.732939,137.714338
須原,須原,35.69769,137.694844
大桑,大桑,36.76079,139.713546
野尻,野尻,35.673042,137.636152
十二兼,十二兼,35.645418,137.617569
南木曽,南木曽,35.598896,137.608672
田立,田立,35.588281,137.54893
坂下,坂下,35.574218,137.531094
落合川,落合川,35.525116,137.530034
中津川,中津川,35.50036,137.502867
美乃坂本,美乃坂本,35.479286,137.450364
恵那,恵那,35.455063,137.407764
武並,武並,35.437938,137.35417
釜戸,釜戸,35.411103,137.30501
瑞浪,瑞浪,35.369081,137.252017
土岐市,土岐市,35.359708,137.182082
多治見,多治見,35.334774,137.120294
古虎渓,古虎渓,35.302955,137.101011
定光寺,定光寺,35.278015,137.080981
高蔵寺,高蔵寺,35.26434,137.043766
神領,神領,35.256234,137.010006
春日井,春日井,35.243139,136.985307
勝川,勝川,35.22982,136.956285
新守山,新守山,35.207283,136.951207
大曽根,大曽根,35.191508,136.937161
千種,千種,35.170168,136.930665
鶴舞,鶴舞,35.156416,136.917436
金山,金山,35.143323,136.90075
名古屋,名古屋,35.170694,136.881637
拝島,拝島,35.721278,139.343468
熊川,熊川,35.728321,139.33584
東秋留,東秋留,35.725904,139.311665
秋川,秋川,35.727998,139.286715
武蔵引田,武蔵引田,35.729711,139.269907
武蔵増戸,武蔵増戸,35.730961,139.256355
武蔵五日市,武蔵五日市,35.732248,139.228039
大宮,大宮,35.907599,139.624458
さいたま新都心,さいたま新都心,35.893867,139.633587
与野,与野,35.884393,139.639085
北浦和,北浦和,35.872053,139.645951
浦和,浦和,35.858496,139.657109
南浦和,南浦和,35.847648,139.669125
蕨,蕨,35.827959,139.690357
西川口,西川口,35.815514,139.704312
川口,川口,35.801869,139.717472
赤羽,赤羽,35.778026,139.720928
東十条,東十条,35.763803,139.726858
王子,王子,35.753966,139.737618
上中里,上中里,35.74728,139.745769
田端,田端,35.737781,139.761229
西日暮里,西日暮里,35.731954,139.766857
日暮里,日暮里,35.727908,139.771287
鶯谷,鶯谷,35.721484,139.778015
上野,上野,35.71379,139.777043
御徒町,御徒町,35.707282,139.774727
秋葉原,秋葉原,35.698162,139.775459
有楽町,有楽町,35.675714,139.763265
新橋,新橋,35.666195,139.758587
浜松町,浜松町,35.655391,139.757135
田町,田町,35.645737,139.747575
高輪ゲートウェイ,高輪ゲートウェイ,35.635476,139.740651
品川,品川,35.62876,139.738999
大井町,大井町,35.607535,139.735025
大森,大森,35.588903,139.728079
蒲田,蒲田,35.561767,139.714626
川崎,川崎,35.531311,139.697485
鶴見,鶴見,35.508387,139.67614
新子安,新子安,35.487064,139.654776
東神奈川,東神奈川,35.47804,139.633466
横浜,横浜,35.465852,139.621768
八丁堀,八丁堀,35.674851,139.776982
越中島,越中島,35.667946,139.792713
潮見,潮見,35.658702,139.817341
新木場,新木場,35.645832,139.826254
葛西臨海公園,葛西臨海公園,35.644392,139.861529
舞浜,舞浜,35.636115,139.883714
新浦安,新浦安,35.649526,139.912553
市川塩浜,市川塩浜,35.666554,139.923684
西船橋,西船橋,35.707127,139.958972
二俣新町,二俣新町,35.691273,139.959525
南船橋,南船橋,35.681804,139.995773
新習志野,新習志野,35.667342,140.012825
幕張豊砂,幕張豊砂,35.657991,140.027061
海浜幕張,海浜幕張,35.648373,140.041917
検見川浜,検見川浜,35.637291,140.058888
稲毛海岸,稲毛海岸,35.629501,140.074034
千葉みなと,千葉みなと,35.607391,140.102495
蘇我,蘇我,35.582065,140.130767
北八王子,北八王子,35.669232,139.363348
小宮,小宮,35.685799,139.368481
東福生,東福生,35.745811,139.33594
箱根ヶ崎,箱根ヶ崎,35.771158,139.346805
金子,金子,35.810822,139.328546
東飯能,東飯能,35.852928,139.325965
高麗川,高麗川,35.896328,139.33809
毛呂,毛呂,35.940806,139.309237
越生,越生,35.962559,139.299437
明覚,明覚,36.003309,139.288789
小川町,小川町,35.695487,139.767551
竹沢,竹沢,36.075466,139.229952
折原,折原,36.096296,139.195205
寄居,寄居,36.117801,139.194197
用土,用土,36.153858,139.200758
松久,松久,36.172938,139.182127
児玉,児玉,36.192624,139.13582
丹荘,丹荘,36.216668,139.102306
群馬藤岡,群馬藤岡,36.250336,139.08338
北藤岡,北藤岡,36.282469,139.080779
倉賀野,倉賀野,36.300216,139.049474
高崎,高崎,36.320826,139.012225
尻手,尻手,35.530939,139.684233
矢向,矢向,35.539408,139.68055
鹿島田,鹿島田,35.551459,139.674964
平間,平間,35.560564,139.671039
向河原,向河原,35.572891,139.66725
武蔵小杉,武蔵小杉,35.575965,139.663278
武蔵中原,武蔵中原,35.581498,139.640613
武蔵新城,武蔵新城,35.587369,139.629419
武蔵溝ノ口,武蔵溝ノ口,35.598923,139.61139
津田山,津田山,35.604259,139.600002
久地,久地,35.610363,139.592714
宿河原,宿河原,35.615429,139.579565
登戸,登戸,35.62115,139.569449
中野島,中野島,35.630135,139.5501
稲田堤,稲田堤,35.633701,139.535173
矢野口,矢野口,35.641305,139.520849
稲城長沼,稲城長沼,35.644184,139.502811
南多摩,南多摩,35.649249,139.489781
府中本町,府中本町,35.665766,139.477142
分倍河原,分倍河原,35.668493,139.468798
西府,西府,35.670912,139.457477
谷保,谷保,35.681377,139.446724
矢川,矢川,35.685079,139.431611
西国立,西国立,35.69375,139.423887
大崎,大崎,35.619772,139.728439
恵比寿,恵比寿,35.646685,139.71007
渋谷,渋谷,35.658871,139.701238
池袋,池袋,35.72913,139.711461
板橋,板橋,35.745435,139.719507
十条,十条,35.760321,139.722233
北赤羽,北赤羽,35.787007,139.70569
浮間舟渡,浮間舟渡,35.791209,139.691341
戸田公園,戸田公園,35.807906,139.678203
戸田,戸田,35.817665,139.669548
北戸田,北戸田,35.826883,139.661201
武蔵浦和,武蔵浦和,35.846047,139.647974
中浦和,中浦和,35.853769,139.6375
南与野,南与野,35.867456,139.631117
与野本町,与野本町,35.880968,139.626075
北与野,北与野,35.890678,139.628521
尾久,尾久,35.74683,139.753846
土呂,土呂,35.931997,139.63214
東大宮,東大宮,35.948751,139.640291
蓮田,蓮田,35.981272,139.653016
白岡,白岡,36.01774,139.666826
新白岡,新白岡,36.038732,139.67208
久喜,久喜,36.065684,139.67727
東鷲宮,東鷲宮,36.089428,139.67913
栗橋,栗橋,36.137034,139.693855
古河,古河,36.194375,139.709726
野木,野木,36.229963,139.734729
間々田,間々田,36.257908,139.761039
小山,小山,36.312747,139.806241
小金井,小金井,36.374435,139.842232
自治医大,自治医大,36.39543,139.854524
石橋,石橋,36.43651,139.866536
雀宮,雀宮,36.493845,139.876811
宇都宮,宇都宮,36.559246,139.898389
岡本,岡本,36.598182,139.944363
宝積寺,宝積寺,36.631703,139.979487
氏家,氏家,36.681696,139.9621
蒲須坂,蒲須坂,36.720727,139.950461
片岡,片岡,36.754557,139.945665
矢板,矢板,36.80655,139.932912
野崎,野崎,36.843722,139.957752
西那須野,西那須野,36.883726,139.986383
那須塩原,那須塩原,36.931956,140.020694
黒磯,黒磯,36.970128,140.060204
五反田,五反田,35.627102,139.724175
目黒,目黒,35.633272,139.7155
原宿,原宿,35.670646,139.702592
新大久保,新大久保,35.700875,139.700261
高田馬場,高田馬場,35.712677,139.703715
目白,目白,35.720476,139.706228
大塚,大塚,35.731412,139.728584
巣鴨,巣鴨,35.733502,139.738519
駒込,駒込,35.736959,139.746442
北千住,北千住,35.749891,139.805564
綾瀬,綾瀬,35.762222,139.825019
亀有,亀有,35.766527,139.847573
金町,金町,35.769582,139.870482
松戸,松戸,35.784472,139.900779
北松戸,北松戸,35.800459,139.911528
馬橋,馬橋,35.811949,139.917042
新松戸,新松戸,35.825467,139.921076
北小金,北小金,35.833436,139.931303
南柏,南柏,35.844655,139.954111
柏,柏,35.862316,139.971148
北柏,北柏,35.875623,139.988035
我孫子,我孫子,35.87279,140.010466
天王台,天王台,35.872558,140.04121
取手,取手,35.89553,140.063004
三河島,三河島,35.733383,139.777131
南千住,南千住,35.733398,139.799273
戸塚,戸塚,35.400818,139.534328
大船,大船,35.352359,139.531367
藤沢,藤沢,35.337227,139.487293
辻堂,辻堂,35.336846,139.447106
茅ヶ崎,茅ヶ崎,35.330741,139.407197
平塚,平塚,35.327647,139.349063
大磯,大磯,35.311299,139.313388
二宮,二宮,35.298644,139.256925
国府津,国府津,35.280832,139.212932
鴨宮,鴨宮,35.275744,139.180147
小田原,小田原,35.256229,139.155396
早川,早川,35.238875,139.145014
根府川,根府川,35.202455,139.138504
真鶴,真鶴,35.156837,139.132148
湯河原,湯河原,35.146178,139.102142
熱海,熱海,35.103573,139.077679
函南,函南,35.108773,138.970984
三島,三島,35.126253,138.911133
沼津,沼津,35.103011,138.860104
片浜,片浜,35.11825,138.818937
原,原,35.124915,138.793387
東田子の浦,東田子の浦,35.136255,138.745441
吉原,吉原,35.143845,138.702768
富士,富士,35.151497,138.651225
富士川,富士川,35.141119,138.618571
新蒲原,新蒲原,35.119599,138.608117
蒲原,蒲原,35.114005,138.582752
由比,由比,35.097108,138.552756
興津,興津,35.052539,138.521865
清水,清水,35.023248,138.488958
草薙,草薙,35.002854,138.442025
東静岡,東静岡,34.985256,138.413118
静岡,静岡,34.971629,138.388579
安倍川,安倍川,34.940961,138.364029
用宗,用宗,34.922512,138.36006
焼津,焼津,34.872261,138.318457
西焼津,西焼津,34.859824,138.28552
藤枝,藤枝,34.849511,138.252748
六合,六合,34.836436,138.203502
島田,島田,34.830159,138.173436
金谷,金谷,34.819049,138.125578
菊川,菊川,35.688379,139.806016
掛川,掛川,34.769463,138.014937
愛野,愛野,34.752257,137.961663
袋井,袋井,34.741377,137.92596
御厨,御厨,34.718469,137.885315
磐田,磐田,34.710132,137.852244
豊田町,豊田町,34.7121,137.82013
天竜川,天竜川,34.716994,137.77923
浜松,浜松,34.703866,137.734759
高塚,高塚,34.690425,137.681303
舞阪,舞阪,34.685701,137.626422
弁天島,弁天島,34.690125,137.603058
新居町,新居町,34.694276,137.568953
鷲津,鷲津,34.716819,137.546116
新所原,新所原,34.723205,137.484399
二川,二川,34.725809,137.438966
豊橋,豊橋,34.762734,137.382128
西小坂井,西小坂井,34.79708,137.352499
愛知御津,愛知御津,34.812624,137.316492
三河大塚,三河大塚,34.815744,137.28287
三河三谷,三河三谷,34.818546,137.247795
蒲郡,蒲郡,34.823078,137.226459
三河塩津,三河塩津,34.825295,137.201261
三ヶ根,三ヶ根,34.836449,137.176348
幸田,幸田,34.859926,137.16447
相見,相見,34.886833,137.160389
岡崎,岡崎,34.925417,137.157243
西岡崎,西岡崎,34.946572,137.123187
安城,安城,34.959986,137.08716
三河安城,三河安城,34.96968,137.060918
東刈谷,東刈谷,34.97741,137.043525
野田新町,野田新町,34.984212,137.026355
刈谷,刈谷,34.991156,137.008878
逢妻,逢妻,34.998215,136.990544
大府,大府,35.008665,136.961727
共和,共和,35.035245,136.954599
南大高,南大高,35.055403,136.948244
大高,大高,35.069244,136.940242
笠寺,笠寺,35.095113,136.926321
熱田,熱田,35.130028,136.910502
尾頭橋,尾頭橋,35.146981,136.89102
枇杷島,枇杷島,35.198681,136.861816
清洲,清洲,35.225406,136.834529
稲沢,稲沢,35.252994,136.820942
尾張一宮,尾張一宮,35.301765,136.797567
木曽川,木曽川,35.349319,136.780726
岐阜,岐阜,35.409532,136.756514
西岐阜,西岐阜,35.404664,136.72341
穂積,穂積,35.396345,136.693834
大垣,大垣,35.367096,136.618288
垂井,垂井,35.369587,136.531246
関ヶ原,関ヶ原,35.363726,136.470451
柏原,柏原,35.344592,136.402767
近江長岡,近江長岡,35.359307,136.373775
醒ヶ井,醒ヶ井,35.327664,136.345135
米原,米原,35.314657,136.289992
荒尾,荒尾,35.373454,136.583276
美濃赤坂,美濃赤坂,35.386677,136.582129
大口,大口,35.492375,139.646288
菊名,菊名,35.509854,139.63137
新横浜,新横浜,35.507526,139.617237
小机,小机,35.508533,139.599787
鴨居,鴨居,35.510955,139.56707
中山,中山,35.515029,139.54032
十日市場,十日市場,35.526254,139.51669
長津田,長津田,35.53196,139.493548
成瀬,成瀬,35.535412,139.472875
町田,町田,35.544222,139.445236
古淵,古淵,35.556055,139.419151
淵野辺,淵野辺,35.568784,139.395075
矢部,矢部,35.573275,139.386373
相模原,相模原,35.58113,139.371007
橋本,橋本,35.594975,139.344586
相原,相原,35.60694,139.33169
八王子みなみ野,八王子みなみ野,35.630664,139.330678
片倉,片倉,35.639704,139.34119
西大井,西大井,35.601616,139.721729
新川崎,新川崎,35.551784,139.671481
保土ヶ谷,保土ヶ谷,35.446746,139.599671
東戸塚,東戸塚,35.430353,139.556794
北鎌倉,北鎌倉,35.337198,139.545134
鎌倉,鎌倉,35.318491,139.550121
逗子,逗子,35.297392,139.578292
東逗子,東逗子,35.298781,139.601768
田浦,田浦,35.29271,139.637726
横須賀,横須賀,35.284022,139.655855
衣笠,衣笠,35.257091,139.661193
久里浜,久里浜,35.233107,139.700862
北府中,北府中,35.68088,139.471792
新小平,新小平,35.73128,139.470745
新秋津,新秋津,35.778331,139.493592
東所沢,東所沢,35.79461,139.513878
新座,新座,35.80381,139.556328
北朝霞,北朝霞,35.815475,139.587322
西浦和,西浦和,35.844139,139.627707
東浦和,東浦和,35.864079,139.704627
東川口,東川口,35.876211,139.74398
南越谷,南越谷,35.876106,139.790499
越谷レイクタウン,越谷レイクタウン,35.87622,139.820219
吉川,吉川,35.87662,139.843162
吉川美南,吉川美南,35.868056,139.858167
新三郷,新三郷,35.858667,139.869341
三郷,三郷,35.845004,139.886341
南流山,南流山,35.83869,139.903271
新八柱,新八柱,35.792013,139.938393
東松戸,東松戸,35.769954,139.942957
市川大野,市川大野,35.755432,139.951227
船橋法典,船橋法典,35.730435,139.966771
市ヶ谷,市ヶ谷,35.692594,139.735794
浅草橋,浅草橋,35.697451,139.786305
両国,両国,35.696881,139.797421
錦糸町,錦糸町,35.697578,139.814941
亀戸,亀戸,35.697708,139.826791
平井,平井,35.70643,139.842181
新小岩,新小岩,35.716903,139.857777
小岩,小岩,35.733207,139.881755
市川,市川,35.728903,139.908142
本八幡,本八幡,35.722929,139.926628
下総中山,下総中山,35.714276,139.943092
船橋,船橋,35.7021,139.98436
東船橋,東船橋,35.699811,140.00393
津田沼,津田沼,35.691367,140.020179
幕張本郷,幕張本郷,35.672664,140.042241
幕張,幕張,35.6594,140.0579
新検見川,新検見川,35.65169,140.073025
稲毛,稲毛,35.637264,140.09256
西千葉,西千葉,35.622639,140.103337
千葉,千葉,35.612084,140.114136
新日本橋,新日本橋,35.688687,139.77323
馬喰町,馬喰町,35.693365,139.78238
西立川,西立川,35.703526,139.393556
東中神,東中神,35.706337,139.384529
中神,中神,35.709058,139.375816
昭島,昭島,35.713305,139.361564
牛浜,牛浜,35.734547,139.333677
福生,福生,35.742456,139.327763
羽村,羽村,35.758073,139.316188
小作,小作,35.776048,139.302233
河辺,河辺,35.78473,139.284032
東青梅,東青梅,35.789768,139.272841
青梅,青梅,35.790512,139.258096
宮ノ平,宮ノ平,35.787545,139.237289
日向和田,日向和田,35.788665,139.229515
石神前,石神前,35.79683,139.225096
二俣尾,二俣尾,35.803945,139.216161
軍畑,軍畑,35.807382,139.207431
沢井,沢井,35.80594,139.193324
御嶽,御嶽,35.801468,139.182589
川井,川井,35.813697,139.16429
古里,古里,35.816247,139.152102
鳩ノ巣,鳩ノ巣,35.815127,139.128932
白丸,白丸,35.811735,139.114861
奥多摩,奥多摩,35.809357,139.096961
宮原,宮原,35.940256,139.609455
上尾,上尾,35.973522,139.588434
北上尾,北上尾,35.985632,139.577223
桶川,桶川,35.998375,139.564274
北本,北本,36.032112,139.533591
鴻巣,鴻巣,36.0592,139.509552
北鴻巣,北鴻巣,36.085529,139.476894
吹上,吹上,36.103062,139.45312
行田,行田,36.113879,139.432103
熊谷,熊谷,36.139313,139.389542
籠原,籠原,36.17448,139.330199
深谷,深谷,36.191343,139.28127
岡部,岡部,36.205645,139.237622
本庄,本庄,36.236229,139.188299
神保原,神保原,36.25359,139.149172
新町,新町,36.272984,139.105457
新御徒町,新御徒町,35.707045,139.781958
浅草,浅草,35.709461,139.79697
青井,青井,35.771782,139.82038
六町,六町,35.784963,139.821816
八潮,八潮,35.807905,139.845017
三郷中央,三郷中央,35.824514,139.878344
流山セントラルパーク,流山セントラルパーク,35.854552,139.915223
流山おおたかの森,流山おおたかの森,35.872051,139.925898
柏の葉キャンパス,柏の葉キャンパス,35.89308,139.952454
柏たなか,柏たなか,35.9109,139.957533
守谷,守谷,35.950626,139.992209
みらい平,みらい平,35.99514,140.038555
みどりの,みどりの,36.03025,140.056276
万博記念公園,万博記念公園,36.05841,140.059256
研究学園,研究学園,36.0821,140.082256
つくば,つくば,36.0825,140.110604
本庄早稲田,本庄早稲田,36.218754,139.179676
上毛高原,上毛高原,36.69317,138.977572
越後湯沢,越後湯沢,36.935799,138.809227
浦佐,浦佐,37.167488,138.922798
長岡,長岡,37.447787,138.853927
燕三条,燕三条,37.648824,138.939274
新潟,新潟,37.912299,139.060869
押上,押上,35.710702,139.812935
京成曳舟,京成曳舟,35.718441,139.820012
八広,八広,35.727687,139.828738
四ツ木,四ツ木,35.731962,139.834918
京成立石,京成立石,35.738281,139.848558
青砥,青砥,35.745883,139.856292
京成高砂,京成高砂,35.750932,139.866875
京成上野,京成上野,35.711232,139.773571
新三河島,新三河島,35.73714,139.773834
町屋,町屋,35.742733,139.780501
千住大橋,千住大橋,35.74243,139.796934
京成関屋,京成関屋,35.744008,139.81183
堀切菖蒲園,堀切菖蒲園,35.747649,139.827545
お花茶屋,お花茶屋,35.747585,139.83988
京成小岩,京成小岩,35.742158,139.88371
江戸川,江戸川,35.737723,139.896226
国府台,国府台,35.736301,139.90322
市川真間,市川真間,35.73121,139.911717
菅野,菅野,35.728272,139.919413
京成八幡,京成八幡,35.723811,139.92816
鬼越,鬼越,35.719776,139.937932
京成中山,京成中山,35.716998,139.944203
東中山,東中山,35.714385,139.952683
京成西船,京成西船,35.711627,139.958863
海神,海神,35.705888,139.971888
京成船橋,京成船橋,35.700161,139.985451
大神宮下,大神宮下,35.693945,139.991431
船橋競馬場,船橋競馬場,35.689606,139.997998
谷津,谷津,35.685257,140.007658
京成津田沼,京成津田沼,35.68364,140.024823
京成大久保,京成大久保,35.686016,140.048629
実籾,実籾,35.686852,140.068289
八千代台,八千代台,35.701465,140.090942
京成大和田,京成大和田,35.712309,140.108578
勝田台,勝田台,35.715445,140.126053
志津,志津,35.717406,140.144982
ユーカリが丘,ユーカリが丘,35.722247,140.157019
京成臼井,京成臼井,35.730017,140.180796
京成佐倉,京成佐倉,35.725205,140.229633
大佐倉,大佐倉,35.729908,140.25079
京成酒々井,京成酒々井,35.736867,140.270132
宗吾参道,宗吾参道,35.752669,140.280975
公津の杜,公津の杜,35.760446,140.294904
京成成田,京成成田,35.776308,140.315473
空港第2ビル,空港第2ビル,35.773327,140.387871
成田空港,成田空港,35.763983,140.384644
柴又,柴又,35.756323,139.875188
京成金町,京成金町,35.768471,139.870387
新鎌ヶ谷,新鎌ヶ谷,35.77922,139.998661
千葉ニュータウン中央,千葉ニュータウン中央,35.800175,140.116159
印旛日本医大,印旛日本医大,35.787512,140.203112
成田湯川,成田湯川,35.799115,140.291596
泉岳寺,泉岳寺,35.638692,139.74002
北品川,北品川,35.622458,139.739191
新馬場,新馬場,35.61762,139.741366
青物横丁,青物横丁,35.609351,139.742958
鮫洲,鮫洲,35.604977,139.742227
立会川,立会川,35.598489,139.738886
大森海岸,大森海岸,35.587576,139.73544
平和島,平和島,35.57868,139.73491
大森町,大森町,35.572431,139.732027
梅屋敷,梅屋敷,35.566873,139.728266
京急蒲田,京急蒲田,35.560796,139.723681
雑色,雑色,35.549725,139.715005
六郷土手,六郷土手,35.540577,139.7076
京急川崎,京急川崎,35.53285,139.700893
八丁畷,八丁畷,35.52307,139.691446
鶴見市場,鶴見市場,35.517594,139.68642
京急鶴見,京急鶴見,35.507032,139.677743
花月総持寺,花月総持寺,35.500358,139.672813
生麦,生麦,35.4956,139.6673
京急新子安,京急新子安,35.487242,139.655848
子安,子安,35.484556,139.644965
神奈川新町,神奈川新町,35.481559,139.640152
京急東神奈川,京急東神奈川,35.477412,139.634669
神奈川,神奈川,35.471304,139.627364
戸部,戸部,35.456631,139.61956
日ノ出町,日ノ出町,35.445524,139.626696
黄金町,黄金町,35.439694,139.62246
南太田,南太田,35.436923,139.613408
井土ヶ谷,井土ヶ谷,35.433895,139.60061
弘明寺,弘明寺,35.423294,139.602081
上大岡,上大岡,35.408745,139.595901
屏風浦,屏風浦,35.394176,139.610387
杉田,杉田,37.563307,140.413663
京急富岡,京急富岡,35.366743,139.629772
能見台,能見台,35.360528,139.629233
金沢文庫,金沢文庫,35.342966,139.621606
金沢八景,金沢八景,35.331587,139.620791
追浜,追浜,35.315461,139.624905
京急田浦,京急田浦,35.300892,139.625252
安針塚,安針塚,35.286641,139.64292
逸見,逸見,35.28048,139.653149
汐入,汐入,35.280241,139.662443
横須賀中央,横須賀中央,35.27858,139.670217
県立大学,県立大学,35.269731,139.677033
堀ノ内,堀ノ内,35.26322,139.686932
京急大津,京急大津,35.261068,139.695334
馬堀海岸,馬堀海岸,35.259651,139.707328
浦賀,浦賀,35.250933,139.714999
糀谷,糀谷,35.5545,139.72962
大鳥居,大鳥居,35.552531,139.739356
穴守稲荷,穴守稲荷,35.550326,139.746669
天空橋,天空橋,35.548908,139.75423
羽田空港第3ターミナル,羽田空港第3ターミナル,35.544169,139.768206
羽田空港第1・第2ターミナル,羽田空港第1・第2ターミナル,35.549809,139.785962
笹塚,笹塚,35.673758,139.667251
代田橋,代田橋,35.671092,139.659413
明大前,明大前,35.668758,139.650352
下高井戸,下高井戸,35.66615,139.641372
桜上水,桜上水,35.66768,139.63129
上北沢,上北沢,35.668857,139.62329
八幡山,八幡山,35.669982,139.614927
芦花公園,芦花公園,35.670479,139.608247
千歳烏山,千歳烏山,35.667921,139.60067
仙川,仙川,35.662257,139.584908
つつじヶ丘,つつじヶ丘,35.657936,139.575103
柴崎,柴崎,35.653997,139.56658
国領,国領,35.650087,139.558036
布田,布田,35.649904,139.551557
調布,調布,35.652181,139.543988
西調布,西調布,35.657169,139.529822
飛田給,飛田給,35.660121,139.523666
武蔵野台,武蔵野台,35.664159,139.511289
多磨霊園,多磨霊園,35.666197,139.502615
東府中,東府中,35.668766,139.495257
府中,府中,35.672245,139.4799
中河原,中河原,35.659549,139.457602
聖蹟桜ヶ丘,聖蹟桜ヶ丘,35.650814,139.446979
百草園,百草園,35.657362,139.431285
高幡不動,高幡不動,35.66148,139.415184
南平,南平,35.654559,139.392008
平山城址公園,平山城址公園,35.647371,139.379926
長沼,長沼,35.642788,139.365849
北野,北野,35.644479,139.354489
京王八王子,京王八王子,35.657416,139.343851
新線新宿,新線新宿,35.68869,139.698812
初台,初台,35.68123,139.686354
幡ヶ谷,幡ヶ谷,35.677061,139.676183
神泉,神泉,35.657244,139.693579
駒場東大前,駒場東大前,35.65868,139.684308
池ノ上,池ノ上,35.660402,139.67344
下北沢,下北沢,35.661655,139.667516
新代田,新代田,35.662593,139.660524
東松原,東松原,35.662634,139.655535
永福町,永福町,35.67629,139.642733
西永福,西永福,35.678918,139.634936
浜田山,浜田山,35.681603,139.627528
高井戸,高井戸,35.683253,139.615115
富士見ヶ丘,富士見ヶ丘,35.684805,139.607072
久我山,久我山,35.688138,139.599211
三鷹台,三鷹台,35.692046,139.589298
井の頭公園,井の頭公園,35.697304,139.583112
京王多摩川,京王多摩川,35.644499,139.536606
京王稲田堤,京王稲田堤,35.633895,139.531099
京王よみうりランド,京王よみうりランド,35.632934,139.517597
稲城,稲城,35.636166,139.500398
若葉台,若葉台,35.619325,139.472189
京王永山,京王永山,35.630102,139.448204
京王多摩センター,京王多摩センター,35.62518,139.42402
京王堀之内,京王堀之内,35.624438,139.400314
南大沢,南大沢,35.6141,139.3798
多摩境,多摩境,35.601826,139.366987
京王片倉,京王片倉,35.644343,139.337035
山田,山田,35.644411,139.321082
めじろ台,めじろ台,35.643601,139.308446
狭間,狭間,35.640637,139.293808
高尾山口,高尾山口,35.632377,139.269856
多摩動物公園,多摩動物公園,35.648666,139.403672
府中競馬正門前,府中競馬正門前,35.668288,139.485019
新柴又,新柴又,35.75101,139.879376
矢切,矢切,35.757503,139.899742
北国分,北国分,35.762916,139.914252
秋山,秋山,35.765299,139.930723
松飛台,松飛台,35.775377,139.957739
大町,大町,35.775103,139.973567
西白井,西白井,35.784364,140.031545
白井,白井,35.784723,140.0541
小室,小室,35.787004,140.076073
印西牧の原,印西牧の原,35.803608,140.166911
赤羽岩淵,赤羽岩淵,35.783417,139.722103
川口元郷,川口元郷,35.800187,139.730043
南鳩ヶ谷,南鳩ヶ谷,35.816839,139.736059
鳩ヶ谷,鳩ヶ谷,35.830859,139.735967
新井宿,新井宿,35.842974,139.737908
戸塚安行,戸塚安行,35.858873,139.753689
浦和美園,浦和美園,35.893677,139.72779
上北台,上北台,35.745824,139.415822
桜街道,桜街道,35.739,139.416653
玉川上水,玉川上水,35.731751,139.418435
砂川七番,砂川七番,35.723319,139.418097
泉体育館,泉体育館,35.718775,139.419525
立飛,立飛,35.714717,139.417387
高松,高松,35.710158,139.413242
立川北,立川北,35.699502,139.41254
立川南,立川南,35.696077,139.412546
柴崎体育館,柴崎体育館,35.689475,139.409191
甲州街道,甲州街道,35.678262,139.409191
万願寺,万願寺,35.671249,139.420079
程久保,程久保,35.655093,139.410698
中央大学・明星大学,中央大学・明星大学,35.64197,139.408672
大塚・帝京大学,大塚・帝京大学,35.636878,139.416461
松が谷,松が谷,35.63169,139.422201
多摩センター,多摩センター,35.623724,139.422782
新百合ヶ丘,新百合ヶ丘,35.603705,139.507608
五月台,五月台,35.600174,139.493542
栗平,栗平,35.605731,139.481298
黒川,黒川,35.613203,139.470731
はるひ野,はるひ野,35.618885,139.464534
小田急永山,小田急永山,35.629972,139.447943
小田急多摩センター,小田急多摩センター,35.624902,139.424298
唐木田,唐木田,35.616672,139.411622
南新宿,南新宿,35.683483,139.69867
参宮橋,参宮橋,35.678586,139.693568
代々木八幡,代々木八幡,35.669715,139.688913
代々木上原,代々木上原,35.669159,139.680153
東北沢,東北沢,35.665379,139.673014
世田谷代田,世田谷代田,35.65834,139.661557
梅ヶ丘,梅ヶ丘,35.656024,139.653628
豪徳寺,豪徳寺,35.653807,139.647381
経堂,経堂,35.650991,139.635993
千歳船橋,千歳船橋,35.647616,139.624544
祖師ヶ谷大蔵,祖師ヶ谷大蔵,35.643236,139.609659
成城学園前,成城学園前,35.640114,139.598958
喜多見,喜多見,35.636697,139.587445
狛江,狛江,35.632001,139.577127
和泉多摩川,和泉多摩川,35.627349,139.573695
向ヶ丘遊園,向ヶ丘遊園,35.617273,139.564719
生田,生田,35.614954,139.542024
読売ランド前,読売ランド前,35.614723,139.527903
百合ヶ丘,百合ヶ丘,35.60903,139.516121
柿生,柿生,35.589597,139.497614
鶴川,鶴川,35.583077,139.481759
玉川学園前,玉川学園前,35.563486,139.463388
相模大野,相模大野,35.532208,139.437836
小田急相模原,小田急相模原,35.515134,139.422571
相武台前,相武台前,35.499294,139.408509
座間,座間,35.480913,139.399899
海老名,海老名,35.453381,139.392074
厚木,厚木,35.44375,139.378631
本厚木,本厚木,35.439338,139.364261
愛甲石田,愛甲石田,35.417634,139.344098
伊勢原,伊勢原,35.396081,139.313768
鶴巻温泉,鶴巻温泉,35.381131,139.277813
東海大学前,東海大学前,35.373151,139.271236
秦野,秦野,35.370075,139.226009
渋沢,渋沢,35.374032,139.184405
新松田,新松田,35.345082,139.139848
開成,開成,35.326532,139.135785
栢山,栢山,35.310679,139.14258
富水,富水,35.296759,139.145166
螢田,螢田,35.285055,139.152036
足柄,足柄,35.332233,138.981687
滝本,滝本,35.796035,139.161383
御岳山,御岳山,35.789685,139.153594
汐留,汐留,35.663703,139.760642
竹芝,竹芝,35.654099,139.762037
日の出,日の出,35.649136,139.75906
芝浦ふ頭,芝浦ふ頭,35.641773,139.757852
お台場海浜公園,お台場海浜公園,35.629813,139.778607
台場,台場,35.625908,139.771435
東京国際クルーズターミナル,東京国際クルーズターミナル,35.621462,139.773157
テレコムセンター,テレコムセンター,35.617593,139.779327
青海,青海,35.62467,139.781132
東京ビッグサイト,東京ビッグサイト,35.630158,139.791228
有明,有明,35.634596,139.793269
有明テニスの森,有明テニスの森,35.639964,139.78888
市場前,市場前,35.645684,139.78564
新豊洲,新豊洲,35.648718,139.789996
豊洲,豊洲,35.654908,139.79621
東雲,東雲,35.640987,139.804395
国際展示場,国際展示場,35.63441,139.791617
東京テレポート,東京テレポート,35.62753,139.778896
天王洲アイル,天王洲アイル,35.622908,139.750675
品川シーサイド,品川シーサイド,35.608524,139.749549
中野坂上,中野坂上,35.69709,139.682279
中野新橋,中野新橋,35.692123,139.673997
中野富士見町,中野富士見町,35.690514,139.666933
方南町,方南町,35.683496,139.656498
新大塚,新大塚,35.72569,139.729971
茗荷谷,茗荷谷,35.716989,139.737184
後楽園,後楽園,35.707898,139.751864
本郷三丁目,本郷三丁目,35.707462,139.760095
淡路町,淡路町,35.695434,139.767575
大手町,大手町,35.684856,139.762959
銀座,銀座,35.671989,139.763965
霞ケ関,霞ケ関,35.673838,139.750899
国会議事堂前,国会議事堂前,35.67393,139.745219
赤坂見附,赤坂見附,35.677021,139.737047
四谷三丁目,四谷三丁目,35.687958,139.720103
新宿御苑前,新宿御苑前,35.688588,139.71069
新宿三丁目,新宿三丁目,35.690616,139.706271
西新宿,西新宿,35.694298,139.692778
新中野,新中野,35.697491,139.66903
東高円寺,東高円寺,35.697802,139.657822
新高円寺,新高円寺,35.697985,139.648068
南阿佐ヶ谷,南阿佐ヶ谷,35.699624,139.63576
北綾瀬,北綾瀬,35.777117,139.832035
千駄木,千駄木,35.725549,139.763243
根津,根津,35.7174,139.765655
湯島,湯島,35.708243,139.769916
新御茶ノ水,新御茶ノ水,35.698072,139.766014
二重橋前,二重橋前,35.681071,139.761948
日比谷,日比谷,35.676036,139.759998
赤坂,赤坂,36.39721,139.117324
乃木坂,乃木坂,35.666572,139.726215
表参道,表参道,35.665247,139.712314
明治神宮前,明治神宮前,35.669071,139.703995
代々木公園,代々木公園,35.669187,139.689099
青山一丁目,青山一丁目,35.672929,139.72396
永田町,永田町,35.678757,139.740258
半蔵門,半蔵門,35.685703,139.74163
九段下,九段下,35.695589,139.751948
神保町,神保町,35.695966,139.757606
三越前,三越前,35.687101,139.773594
水天宮前,水天宮前,35.682683,139.785377
清澄白河,清澄白河,35.682105,139.798851
住吉,住吉,35.689073,139.815681
白金台,白金台,35.637917,139.726133
白金高輪,白金高輪,35.642903,139.734104
麻布十番,麻布十番,35.656503,139.736116
六本木一丁目,六本木一丁目,35.665595,139.739
溜池山王,溜池山王,35.673621,139.741419
東大前,東大前,35.717633,139.758025
本駒込,本駒込,35.724155,139.753828
西ケ原,西ケ原,35.746008,139.742322
王子神谷,王子神谷,35.765172,139.735933
志茂,志茂,35.777948,139.732599
三ノ輪,三ノ輪,35.729623,139.791485
入谷,入谷,35.478478,139.391913
仲御徒町,仲御徒町,35.706649,139.776138
小伝馬町,小伝馬町,35.690737,139.778433
人形町,人形町,35.686307,139.782285
茅場町,茅場町,35.679752,139.780005
築地,築地,35.668115,139.772603
東銀座,東銀座,35.669464,139.767253
虎ノ門ヒルズ,虎ノ門ヒルズ,35.667444,139.747793
神谷町,神谷町,35.662978,139.745069
六本木,六本木,35.663921,139.731567
広尾,広尾,35.652279,139.722202
中目黒,中目黒,35.643854,139.698621
和光市,和光市,35.788507,139.612434
地下鉄成増,地下鉄成増,35.776557,139.631497
地下鉄赤塚,地下鉄赤塚,35.769939,139.644021
平和台,平和台,35.85123,139.901108
氷川台,氷川台,35.74955,139.665567
小竹向原,小竹向原,35.743803,139.678572
千川,千川,35.738229,139.689271
要町,要町,35.73323,139.698715
東池袋,東池袋,35.725732,139.719546
護国寺,護国寺,35.719044,139.72754
江戸川橋,江戸川橋,35.709495,139.733538
麹町,麹町,35.684006,139.737613
桜田門,桜田門,35.677405,139.75149
銀座一丁目,銀座一丁目,35.67435,139.767045
新富町,新富町,35.670462,139.773711
月島,月島,35.664871,139.784233
辰巳,辰巳,35.645576,139.81052
落合,落合,35.710976,139.687284
早稲田,早稲田,35.711848,139.718928
神楽坂,神楽坂,35.70379,139.734546
竹橋,竹橋,35.690662,139.756817
日本橋,日本橋,35.681688,139.775721
門前仲町,門前仲町,35.671851,139.796209
木場,木場,35.669351,139.807042
東陽町,東陽町,35.669629,139.817596
南砂町,南砂町,35.668796,139.83065
西葛西,西葛西,35.664631,139.859259
葛西,葛西,35.663554,139.872458
浦安,浦安,35.665932,139.893193
南行徳,南行徳,35.672687,139.902311
行徳,行徳,35.682686,139.914254
妙典,妙典,35.690935,139.924209
原木中山,原木中山,35.703517,139.942029
外苑前,外苑前,35.670527,139.717857
虎ノ門,虎ノ門,35.670236,139.749832
京橋,京橋,35.676856,139.770126
末広町,末広町,35.702972,139.771713
上野広小路,上野広小路,35.70768,139.772877
稲荷町,稲荷町,35.711273,139.782593
田原町,田原町,35.709897,139.790897
雑司が谷,雑司が谷,35.720233,139.714795
西早稲田,西早稲田,35.708242,139.709101
東新宿,東新宿,35.69792,139.707549
北参道,北参道,35.678459,139.705453
明治神宮前〈原宿〉,明治神宮前〈原宿〉,35.668497,139.705367
モノレール浜松町,モノレール浜松町,35.655666,139.756747
大井競馬場前,大井競馬場前,35.595006,139.74708
流通センター,流通センター,35.58186,139.748964
昭和島,昭和島,35.570656,139.749918
整備場,整備場,35.555125,139.753366
新整備場,新整備場,35.542773,139.786777
羽田空港第1ターミナル,羽田空港第1ターミナル,35.549163,139.784653
羽田空港第2ターミナル,羽田空港第2ターミナル,35.550734,139.787979
新白河,新白河,37.12331,140.188969
郡山,郡山,37.398187,140.389363
福島,福島,37.754123,140.45968
白石蔵王,白石蔵王,37.995052,140.632881
仙台,仙台,38.260027,140.882158
古川,古川,38.571192,140.967876
くりこま高原,くりこま高原,38.749024,141.071756
一ノ関,一ノ関,38.926514,141.138177
水沢江刺,水沢江刺,39.14526,141.188748
北上,北上,39.281196,141.121221
新花巻,新花巻,39.405839,141.17302
盛岡,盛岡,39.701547,141.136599
いわて沼宮内,いわて沼宮内,39.960155,141.216955
二戸,二戸,40.25997,141.286211
八戸,八戸,40.5092,141.431499
七戸十和田,七戸十和田,40.719954,141.153817
新青森,新青森,40.8275,140.693472
三軒茶屋,三軒茶屋,35.643716,139.670156
西太子堂,西太子堂,35.644545,139.666382
若林,若林,35.645933,139.659911
松陰神社前,松陰神社前,35.643947,139.655211
世田谷,世田谷,35.643564,139.650945
上町,上町,35.643656,139.646276
宮の坂,宮の坂,35.647508,139.64494
山下,山下,37.967292,140.900688
松原,松原,35.660048,139.642
多摩川,多摩川,35.589591,139.668723
沼部,沼部,35.582526,139.67326
鵜の木,鵜の木,35.575452,139.680554
下丸子,下丸子,35.571397,139.685576
武蔵新田,武蔵新田,35.567806,139.692506
矢口渡,矢口渡,35.562462,139.700389
下神明,下神明,35.608704,139.726256
戸越公園,戸越公園,35.608856,139.718159
中延,中延,35.605769,139.713736
荏原町,荏原町,35.60382,139.707571
旗の台,旗の台,35.604923,139.702286
北千束,北千束,35.606311,139.693303
大岡山,大岡山,35.607456,139.685909
緑が丘,緑が丘,35.60638,139.679482
自由が丘,自由が丘,35.607224,139.668664
九品仏,九品仏,35.60538,139.660992
尾山台,尾山台,35.606971,139.653862
等々力,等々力,35.608369,139.647938
上野毛,上野毛,35.611957,139.638917
二子玉川,二子玉川,35.611788,139.626685
代官山,代官山,35.648193,139.703284
祐天寺,祐天寺,35.637163,139.690758
学芸大学,学芸大学,35.628786,139.68522
都立大学,都立大学,35.617835,139.676393
田園調布,田園調布,35.596815,139.667356
新丸子,新丸子,35.58049,139.661964
元住吉,元住吉,35.565698,139.654668
日吉,日吉,35.5539,139.646944
綱島,綱島,35.536906,139.63491
大倉山,大倉山,35.52243,139.629808
妙蓮寺,妙蓮寺,35.498779,139.633194
白楽,白楽,35.489555,139.627875
東白楽,東白楽,35.483523,139.629364
反町,反町,35.47474,139.625337
大崎広小路,大崎広小路,35.622244,139.722339
戸越銀座,戸越銀座,35.615928,139.714862
荏原中延,荏原中延,35.610056,139.712196
長原,長原,35.60219,139.697881
洗足池,洗足池,35.599648,139.690896
石川台,石川台,35.596888,139.685063
雪が谷大塚,雪が谷大塚,35.592038,139.681083
御嶽山,御嶽山,35.585236,139.682473
久が原,久が原,35.579499,139.685678
千鳥町,千鳥町,35.572983,139.69142
池上,池上,35.572025,139.702822
蓮沼,蓮沼,35.564173,139.708544
池尻大橋,池尻大橋,35.650603,139.684319
駒沢大学,駒沢大学,35.633471,139.661702
桜新町,桜新町,35.631666,139.644779
用賀,用賀,35.626436,139.633928
二子新地,二子新地,35.606994,139.622338
高津,高津,35.603248,139.616934
溝の口,溝の口,35.59984,139.610487
梶が谷,梶が谷,35.593963,139.605885
宮崎台,宮崎台,35.587228,139.591313
宮前平,宮前平,35.584951,139.581983
鷺沼,鷺沼,35.579762,139.573268
たまプラーザ,たまプラーザ,35.577427,139.558447
あざみ野,あざみ野,35.568076,139.553694
江田,江田,35.558671,139.551518
市が尾,市が尾,35.551483,139.541496
藤が丘,藤が丘,35.543454,139.527655
青葉台,青葉台,35.542855,139.517376
田奈,田奈,35.536204,139.504855
つくし野,つくし野,35.527559,139.485139
すずかけ台,すずかけ台,35.517094,139.481684
南町田グランベリーパーク,南町田グランベリーパーク,35.511502,139.470318
つきみ野,つきみ野,35.510546,139.458651
中央林間,中央林間,35.508066,139.444105
不動前,不動前,35.626526,139.71469
武蔵小山,武蔵小山,35.620538,139.704524
西小山,西小山,35.615455,139.698694
洗足,洗足,35.61043,139.694367
奥沢,奥沢,35.603947,139.672355
亀戸水神,亀戸水神,35.699976,139.833422
東あずま,東あずま,35.707067,139.831883
小村井,小村井,35.710316,139.827595
曳舟,曳舟,35.718418,139.816634
とうきょうスカイツリー,とうきょうスカイツリー,35.71043,139.809332
東向島,東向島,35.724324,139.819306
鐘ヶ淵,鐘ヶ淵,35.733712,139.820344
堀切,堀切,35.742977,139.817727
牛田,牛田,35.744555,139.811816
小菅,小菅,35.759039,139.812935
五反野,五反野,35.765852,139.809643
梅島,梅島,35.772437,139.797916
西新井,西新井,35.777323,139.790372
竹ノ塚,竹ノ塚,35.794368,139.790788
谷塚,谷塚,35.814926,139.801483
草加,草加,35.828476,139.803397
獨協大学前,獨協大学前,35.84333,139.800622
新田,新田,38.711475,141.119428
蒲生,蒲生,35.866851,139.791686
新越谷,新越谷,35.875186,139.789905
越谷,越谷,35.887529,139.786213
北越谷,北越谷,35.901724,139.780008
大袋,大袋,35.92437,139.777868
せんげん台,せんげん台,35.935832,139.774478
武里,武里,35.949102,139.770675
一ノ割,一ノ割,35.96412,139.766219
春日部,春日部,35.980095,139.752345
北春日部,北春日部,35.990655,139.744012
姫宮,姫宮,36.004384,139.738674
東武動物公園,東武動物公園,36.024604,139.726901
和戸,和戸,36.039562,139.701156
鷲宮,鷲宮,36.09626,139.656945
花崎,花崎,36.109891,139.633522
加須,加須,36.122992,139.595584
南羽生,南羽生,36.14959,139.55696
羽生,羽生,36.170345,139.533949
川俣,川俣,36.208778,139.52652
茂林寺前,茂林寺前,36.226331,139.527058
館林,館林,36.246606,139.527811
多々良,多々良,36.273732,139.500179
県,県,36.290615,139.472336
福居,福居,36.305208,139.458634
東武和泉,東武和泉,36.315595,139.45509
足利市,足利市,36.32948,139.448113
野州山辺,野州山辺,36.32633,139.431981
韮川,韮川,36.307913,139.401704
太田,太田,36.294228,139.378779
細谷,細谷,36.282523,139.348509
木崎,木崎,36.271393,139.312988
世良田,世良田,36.272931,139.282038
境町,境町,36.277191,139.256177
剛志,剛志,36.295428,139.223792
新伊勢崎,新伊勢崎,36.318052,139.201816
伊勢崎,伊勢崎,36.326849,139.193704
大師前,大師前,35.778989,139.781647
北池袋,北池袋,35.741283,139.716749
下板橋,下板橋,35.745721,139.714785
大山,大山,35.748398,139.702589
中板橋,中板橋,35.756214,139.694628
ときわ台,ときわ台,35.758771,139.689015
上板橋,上板橋,35.763596,139.67641
東武練馬,東武練馬,35.768698,139.661964
下赤塚,下赤塚,35.770558,139.644482
成増,成増,35.777723,139.632708
朝霞,朝霞,35.796736,139.600321
朝霞台,朝霞台,35.814328,139.587189
志木,志木,35.822105,139.575367
柳瀬川,柳瀬川,35.830723,139.562071
みずほ台,みずほ台,35.838233,139.55078
鶴瀬,鶴瀬,35.845776,139.539347
ふじみ野,ふじみ野,35.860735,139.523389
上福岡,上福岡,35.873855,139.511782
新河岸,新河岸,35.890911,139.497257
川越,川越,35.906742,139.483078
川越市,川越市,35.914146,139.476989
霞ヶ関,霞ヶ関,35.925635,139.442897
鶴ヶ島,鶴ヶ島,35.936771,139.423825
若葉,若葉,35.948919,139.408782
坂戸,坂戸,35.957181,139.394032
北坂戸,北坂戸,35.972098,139.396932
高坂,高坂,36.002572,139.397747
東松山,東松山,36.034608,139.401651
森林公園,森林公園,36.045239,139.374947
つきのわ,つきのわ,36.04352,139.345541
武蔵嵐山,武蔵嵐山,36.044001,139.32829
東武竹沢,東武竹沢,36.0754,139.237591
みなみ寄居,みなみ寄居,36.091649,139.236463
男衾,男衾,36.107415,139.234442
鉢形,鉢形,36.11378,139.208649
玉淀,玉淀,36.117071,139.200052
新富士,新富士,35.142185,138.663637
岐阜羽島,岐阜羽島,35.316023,136.68537
京都,京都,34.985465,135.757748
新大阪,新大阪,34.734136,135.501852
恋ヶ窪,恋ヶ窪,35.711385,139.463944
鷹の台,鷹の台,35.723097,139.461155
小川,小川,35.737573,139.463493
東村山,東村山,35.76006,139.465839
新小金井,新小金井,35.695908,139.526603
多磨,多磨,35.676821,139.51713
白糸台,白糸台,35.666517,139.509862
競艇場前,競艇場前,35.656232,139.499721
是政,是政,35.656242,139.488592
一橋学園,一橋学園,35.72217,139.480039
青梅街道,青梅街道,35.73098,139.476628
萩山,萩山,35.740759,139.476903
八坂,八坂,35.744925,139.467676
武蔵大和,武蔵大和,35.756427,139.444008
多摩湖,多摩湖,35.765881,139.442747
西武園ゆうえんち,西武園ゆうえんち,35.769042,139.440166
西武球場前,西武球場前,35.77093,139.41966
小平,小平,35.736963,139.488491
東大和市,東大和市,35.732829,139.434249
武蔵砂川,武蔵砂川,35.728876,139.392319
西武立川,西武立川,35.7262,139.370124
西武新宿,西武新宿,35.696254,139.7
下落合,下落合,35.715846,139.695391
中井,中井,35.714035,139.686356
新井薬師前,新井薬師前,35.715778,139.672582
沼袋,沼袋,35.719458,139.663841
野方,野方,35.719658,139.652733
都立家政,都立家政,35.722313,139.644839
鷺ノ宮,鷺ノ宮,35.722605,139.63892
下井草,下井草,35.723852,139.624688
井荻,井荻,35.72469,139.615303
上井草,上井草,35.725326,139.602937
上石神井,上石神井,35.726189,139.592266
武蔵関,武蔵関,35.7276,139.576417
東伏見,東伏見,35.728761,139.563529
西武柳沢,西武柳沢,35.728621,139.552477
田無,田無,35.727307,139.539259
花小金井,花小金井,35.726129,139.513228
久米川,久米川,35.749575,139.472653
所沢,所沢,35.786627,139.473324
航空公園,航空公園,35.798272,139.465641
新所沢,新所沢,35.805854,139.457069
入曽,入曽,35.832481,139.427304
狭山市,狭山市,35.856936,139.413015
新狭山,新狭山,35.873993,139.433499
南大塚,南大塚,35.889663,139.454189
本川越,本川越,35.913524,139.481125
練馬,練馬,35.737404,139.65477
新桜台,新桜台,35.74077,139.6683
椎名町,椎名町,35.726572,139.694363
東長崎,東長崎,35.73003,139.683294
江古田,江古田,35.737557,139.672814
桜台,桜台,35.738797,139.662602
中村橋,中村橋,35.736767,139.637456
富士見台,富士見台,35.735867,139.62969
練馬高野台,練馬高野台,35.740622,139.616749
石神井公園,石神井公園,35.743563,139.606981
大泉学園,大泉学園,35.749406,139.586732
保谷,保谷,35.748222,139.567753
ひばりヶ丘,ひばりヶ丘,35.751485,139.545852
東久留米,東久留米,35.760445,139.533739
清瀬,清瀬,35.772221,139.519917
秋津,秋津,35.778614,139.496539
西所沢,西所沢,35.789303,139.455959
小手指,小手指,35.800535,139.438016
狭山ヶ丘,狭山ヶ丘,35.810445,139.416975
武蔵藤沢,武蔵藤沢,35.820963,139.412736
稲荷山公園,稲荷山公園,35.845112,139.39842
入間市,入間市,35.842904,139.390294
仏子,仏子,35.83769,139.360115
元加治,元加治,35.84058,139.345316
飯能,飯能,35.851189,139.318824
高麗,高麗,35.881982,139.304414
武蔵横手,武蔵横手,35.885256,139.280667
東吾野,東吾野,35.892439,139.260281
吾野,吾野,35.908502,139.226787
西武園,西武園,35.767684,139.448904
豊島園,豊島園,35.742067,139.64911
三田,三田,35.64818,139.748775
芝公園,芝公園,35.654074,139.749824
御成門,御成門,35.661215,139.751535
内幸町,内幸町,35.66975,139.75561
春日,春日,35.709598,139.75325
白山,白山,35.721408,139.752136
千石,千石,35.727957,139.744792
西巣鴨,西巣鴨,35.743508,139.728712
新板橋,新板橋,35.748785,139.720101
板橋区役所前,板橋区役所前,35.751284,139.710102
板橋本町,板橋本町,35.761339,139.705535
本蓮沼,本蓮沼,35.768782,139.702324
志村坂上,志村坂上,35.775725,139.69538
志村三丁目,志村三丁目,35.777391,139.685937
蓮根,蓮根,35.784335,139.678993
西台,西台,35.78699,139.673971
高島平,高島平,35.789056,139.661216
新高島平,新高島平,35.790189,139.654275
西高島平,西高島平,35.791833,139.64594
新宿西口,新宿西口,35.693315,139.699155
若松河田,若松河田,35.699218,139.718184
牛込柳町,牛込柳町,35.699518,139.725027
牛込神楽坂,牛込神楽坂,35.700851,139.735802
上野御徒町,上野御徒町,35.707893,139.774332
蔵前,蔵前,35.703236,139.790931
森下,森下,35.68796,139.797042
勝どき,勝どき,35.658507,139.776442
築地市場,築地市場,35.664895,139.766915
大門,大門,35.656785,139.75466
赤羽橋,赤羽橋,35.655007,139.743642
国立競技場,国立競技場,35.679831,139.714932
都庁前,都庁前,35.690551,139.69257
西新宿五丁目,西新宿五丁目,35.689798,139.684304
落合南長崎,落合南長崎,35.723608,139.683303
新江古田,新江古田,35.732538,139.670653
練馬春日町,練馬春日町,35.751452,139.640236
光が丘,光が丘,35.758526,139.628603
曙橋,曙橋,35.692402,139.722881
岩本町,岩本町,35.695534,139.775866
馬喰横山,馬喰横山,35.69212,139.782768
浜町,浜町,35.688516,139.788154
西大島,西大島,35.689349,139.826206
大島,大島,35.689905,139.83565
東大島,東大島,35.690355,139.845963
船堀,船堀,35.683795,139.864258
一之江,一之江,35.686055,139.882934
瑞江,瑞江,35.693318,139.89761
篠崎,篠崎,35.706017,139.903698
西馬込,西馬込,35.586859,139.705942
馬込,馬込,35.596435,139.711772
戸越,戸越,35.614633,139.716495
高輪台,高輪台,35.631679,139.730305
宝町,宝町,35.675461,139.771767
東日本橋,東日本橋,35.692126,139.784821
本所吾妻橋,本所吾妻橋,35.70858,139.804624
三ノ輪橋,三ノ輪橋,35.732248,139.791412
荒川一中前,荒川一中前,35.733659,139.788988
荒川区役所前,荒川区役所前,35.73493,139.786456
荒川二丁目,荒川二丁目,35.738623,139.784696
荒川七丁目,荒川七丁目,35.741975,139.78417
町屋駅前,町屋駅前,35.74275,139.781145
町屋二丁目,町屋二丁目,35.743837,139.776625
東尾久三丁目,東尾久三丁目,35.745398,139.774386
熊野前,熊野前,35.748972,139.769695
宮ノ前,宮ノ前,35.750135,139.764955
小台,小台,35.750579,139.761779
荒川遊園地前,荒川遊園地前,35.750744,139.757767
荒川車庫前,荒川車庫前,35.750909,139.752617
梶原,梶原,35.751162,139.747403
栄町,栄町,35.612822,140.118592
王子駅前,王子駅前,35.753199,139.737661
飛鳥山,飛鳥山,35.750248,139.737382
滝野川一丁目,滝野川一丁目,35.747374,139.735376
西ヶ原四丁目,西ヶ原四丁目,35.744501,139.732779
新庚申塚,新庚申塚,35.741348,139.730451
庚申塚,庚申塚,35.739563,139.729743
巣鴨新田,巣鴨新田,35.735488,139.727769
大塚駅前,大塚駅前,35.732082,139.729593
向原,向原,35.728938,139.724894
東池袋四丁目,東池袋四丁目,35.72528,139.720012
都電雑司ヶ谷,都電雑司ヶ谷,35.724261,139.718006
鬼子母神前,鬼子母神前,35.720403,139.714916
学習院下,学習院下,35.716248,139.71247
面影橋,面影橋,35.712981,139.714444
敦賀,敦賀,35.644767,136.076488
越前たけふ,越前たけふ,35.895695,136.198935
福井,福井,36.062057,136.223516
芦原温泉,芦原温泉,36.214542,136.235069
加賀温泉,加賀温泉,36.320562,136.350337
小松,小松,36.402545,136.452926
金沢,金沢,36.578117,136.648166
新高岡,新高岡,36.727004,137.010459
富山,富山,36.701384,137.213091
黒部宇奈月温泉,黒部宇奈月温泉,36.874232,137.481326
糸魚川,糸魚川,37.043631,137.861311
上越妙高,上越妙高,37.081813,138.249476
飯山,飯山,36.845183,138.358939
長野,長野,36.643307,138.189101
上田,上田,36.396579,138.249298
佐久平,佐久平,36.277929,138.464367
軽井沢,軽井沢,36.342889,138.635096
安中榛名,安中榛名,36.362582,138.849312
高尾山,高尾山,35.63111,139.256026
清滝,清滝,35.631083,139.266772
赤土小学校前,赤土小学校前,35.742454,139.768989
足立小台,足立小台,35.754658,139.770381
扇大橋,扇大橋,35.763897,139.770808
高野,高野,35.768359,139.770679
江北,江北,35.774021,139.770306
西新井大師西,西新井大師西,35.781505,139.770094
谷在家,谷在家,35.788774,139.770043
舎人公園,舎人公園,35.79623,139.770183
舎人,舎人,35.8057,139.770108
見沼代親水公園,見沼代親水公園,35.814544,139.770719
羽沢横浜国大,羽沢横浜国大,35.481245,139.586167
西谷,西谷,35.478092,139.565721
鶴ヶ峰,鶴ヶ峰,35.475031,139.549586
二俣川,二俣川,35.463335,139.532207
希望ヶ丘,希望ヶ丘,35.460399,139.5143
三ツ境,三ツ境,35.467779,139.502662
瀬谷,瀬谷,35.470412,139.482574
大和,大和,36.345567,140.073216
相模大塚,相模大塚,35.470666,139.441232
さがみ野,さがみ野,35.471485,139.429055
かしわ台,かしわ台,35.466744,139.415851
川崎新町,川崎新町,35.518234,139.699348
小田栄,小田栄,35.5145,139.704944
浜川崎,浜川崎,35.509863,139.713575
下曽我,下曽我,35.303554,139.183395
上大井,上大井,35.321883,139.163508
相模金子,相模金子,35.33364,139.150753
松田,松田,35.346843,139.137417
東山北,東山北,35.357637,139.10765
山北,山北,35.360808,139.080212
谷峨,谷峨,35.366561,139.038234
駿河小山,駿河小山,35.359113,138.997689
御殿場,御殿場,35.299933,138.93424
南御殿場,南御殿場,35.277269,138.925789
富士岡,富士岡,35.257299,138.920504
岩波,岩波,35.21498,138.919296
裾野,裾野,35.171372,138.909293
長泉なめり,長泉なめり,35.147633,138.899364
下土狩,下土狩,35.128379,138.895126
大岡,大岡,35.116158,138.881988
桜木町,桜木町,35.449667,139.630791
関内,関内,35.445821,139.635855
石川町,石川町,35.438808,139.642934
山手,山手,35.426891,139.646425
根岸,根岸,35.415887,139.636034
磯子,磯子,35.399881,139.617916
新杉田,新杉田,35.385919,139.620502
洋光台,洋光台,35.378785,139.596852
港南台,港南台,35.375183,139.576243
本郷台,本郷台,35.36787,139.550159
北茅ヶ崎,北茅ヶ崎,35.339167,139.407569
香川,香川,35.35655,139.400044
寒川,寒川,35.367579,139.387452
宮山,宮山,35.382261,139.379639
倉見,倉見,35.395098,139.378422
門沢橋,門沢橋,35.406761,139.380139
社家,社家,35.420543,139.377281
相武台下,相武台下,35.492734,139.386297
下溝,下溝,35.518516,139.380428
原当麻,原当麻,35.528978,139.375355
番田,番田,35.545392,139.362988
上溝,上溝,35.557623,139.36315
南橋本,南橋本,35.58042,139.352484
国道,国道,35.50083,139.675599
鶴見小野,鶴見小野,35.497005,139.681226
弁天橋,弁天橋,35.495758,139.689451
浅野,浅野,35.497555,139.695739
新芝浦,新芝浦,35.491915,139.7001
海芝浦,海芝浦,35.486073,139.700603
安善,安善,35.499668,139.700663
武蔵白石,武蔵白石,35.501912,139.706513
大川,大川,35.495646,139.711038
昭和,昭和,35.506836,139.723897
扇町,扇町,35.501452,139.722147
新大津,新大津,35.257013,139.69016
北久里浜,北久里浜,35.249355,139.686368
京急久里浜,京急久里浜,35.231332,139.702139
YRP野比,YRP野比,35.212229,139.685068
京急長沢,京急長沢,35.20548,139.674048
津久井浜,津久井浜,35.198419,139.665279
三浦海岸,三浦海岸,35.188084,139.653138
三崎口,三崎口,35.177515,139.633207
港町,港町,35.535014,139.712578
鈴木町,鈴木町,35.53535,139.720655
川崎大師,川崎大師,35.535711,139.725946
東門前,東門前,35.536566,139.734298
大師橋,大師橋,35.536611,139.740381
小島新田,小島新田,35.534798,139.747575
六浦,六浦,35.32269,139.611532
神武寺,神武寺,35.306233,139.592947
逗子・葉山,逗子・葉山,35.294189,139.580359
緑町,緑町,35.259226,139.158578
井細田,井細田,35.268964,139.157397
五百羅漢,五百羅漢,35.27519,139.155758
穴部,穴部,35.279887,139.148787
飯田岡,飯田岡,35.287913,139.139109
相模沼田,相模沼田,35.292334,139.133945
岩原,岩原,35.298825,139.12879
塚原,塚原,35.301305,139.126632
和田河原,和田河原,35.31585,139.118684
富士フィルム前,富士フィルム前,35.317657,139.109483
大雄山,大雄山,35.319046,139.10365
大山ケーブル,大山ケーブル,35.427956,139.244494
大山寺,大山寺,35.429629,139.241019
阿夫利神社,阿夫利神社,35.431541,139.237838
東林間,東林間,35.520541,139.438883
南林間,南林間,35.495627,139.447911
鶴間,鶴間,35.49057,139.450572
桜ヶ丘,桜ヶ丘,35.450486,139.465734
高座渋谷,高座渋谷,35.432519,139.464854
長後,長後,35.41261,139.465307
湘南台,湘南台,35.396642,139.467031
六会日大前,六会日大前,35.383761,139.470665
善行,善行,35.36285,139.473199
藤沢本町,藤沢本町,35.348188,139.476046
本鵠沼,本鵠沼,35.331129,139.475412
鵠沼海岸,鵠沼海岸,35.320744,139.47121
片瀬江ノ島,片瀬江ノ島,35.309345,139.482934
恩田,恩田,35.545535,139.492127
こどもの国,こどもの国,35.558035,139.486657
新高島,新高島,35.46192,139.626499
みなとみらい,みなとみらい,35.458028,139.632386
馬車道,馬車道,35.450135,139.636175
日本大通り,日本大通り,35.446821,139.642608
元町・中華街,元町・中華街,35.44243,139.650446
下飯田,下飯田,35.403503,139.483195
立場,立場,35.414296,139.500177
中田,中田,35.411161,139.511301
踊場,踊場,35.405922,139.518058
舞岡,舞岡,35.402685,139.551509
下永谷,下永谷,35.402677,139.559389
上永谷,上永谷,35.401391,139.572713
港南中央,港南中央,35.401049,139.590958
蒔田,蒔田,35.429935,139.610123
吉野町,吉野町,35.435489,139.618455
阪東橋,阪東橋,35.437434,139.624843
伊勢佐木長者町,伊勢佐木長者町,35.441044,139.633176
高島町,高島町,35.458575,139.623743
三ツ沢下町,三ツ沢下町,35.476512,139.61481
三ツ沢上町,三ツ沢上町,35.476526,139.605395
片倉町,片倉町,35.490205,139.606511
岸根公園,岸根公園,35.496038,139.617065
北新横浜,北新横浜,35.519271,139.612818
新羽,新羽,35.527701,139.612065
仲町台,仲町台,35.535258,139.589715
センター南,センター南,35.545863,139.574325
センター北,センター北,35.553534,139.578386
中川,中川,35.562973,139.569846
南部市場,南部市場,35.380192,139.633163
鳥浜,鳥浜,35.377187,139.641704
並木北,並木北,35.372015,139.642743
並木中央,並木中央,35.365505,139.642945
幸浦,幸浦,35.358406,139.643706
産業振興センター,産業振興センター,35.35339,139.646326
福浦,福浦,35.349627,139.648517
市大医学部,市大医学部,35.343966,139.650156
八景島,八景島,35.340914,139.64079
海の公園柴口,海の公園柴口,35.342086,139.635846
海の公園南口,海の公園南口,35.337225,139.632096
野島公園,野島公園,35.330559,139.631524
和田塚,和田塚,35.31372,139.545362
由比ヶ浜,由比ヶ浜,35.312857,139.54157
長谷,長谷,35.311265,139.536168
極楽寺,極楽寺,35.309318,139.528721
稲村ヶ崎,稲村ヶ崎,35.30426,139.522322
七里ヶ浜,七里ヶ浜,35.306243,139.510101
鎌倉高校前,鎌倉高校前,35.306698,139.500535
腰越,腰越,35.308287,139.493286
江ノ島,江ノ島,35.311003,139.487581
湘南海岸公園,湘南海岸公園,35.315203,139.4833
鵠沼,鵠沼,35.321447,139.482637
柳小路,柳小路,35.327352,139.485189
石上,石上,35.332482,139.485572
富士見町,富士見町,35.345389,139.529277
湘南町屋,湘南町屋,35.337832,139.522666
湘南深沢,湘南深沢,35.332865,139.518903
西鎌倉,西鎌倉,35.319383,139.504365
片瀬山,片瀬山,35.317256,139.496052
目白山下,目白山下,35.31402,139.491533
湘南江の島,湘南江の島,35.311867,139.487794
南万騎が原,南万騎が原,35.452522,139.526344
緑園都市,緑園都市,35.439502,139.521841
弥生台,弥生台,35.429933,139.506615
いずみ野,いずみ野,35.429434,139.495135
いずみ中央,いずみ中央,35.415385,139.48727
ゆめが丘,ゆめが丘,35.405436,139.482192
平沼橋,平沼橋,35.460355,139.616897
西横浜,西横浜,35.453437,139.608745
天王町,天王町,35.453984,139.602554
星川,星川,35.458634,139.594816
和田町,和田町,35.463597,139.586786
上星川,上星川,35.467694,139.580078
箱根板橋,箱根板橋,35.245169,139.145169
風祭,風祭,35.246229,139.129104
入生田,入生田,35.240894,139.121244
箱根湯本,箱根湯本,35.233555,139.103743
塔ノ沢,塔ノ沢,35.234521,139.094016
大平台,大平台,35.238664,139.073849
宮ノ下,宮ノ下,35.241913,139.063052
小涌谷,小涌谷,35.240374,139.053162
彫刻の森,彫刻の森,35.246529,139.050856
強羅,強羅,35.25085,139.048162
公園下,公園下,35.249944,139.045639
公園上,公園上,35.249083,139.043167
中強羅,中強羅,35.248167,139.040556
上強羅,上強羅,35.247306,139.038056
早雲山,早雲山,35.246444,139.035611
川和町,川和町,35.52802,139.548745
都筑ふれあいの丘,都筑ふれあいの丘,35.536583,139.561359
北山田,北山田,35.561077,139.592258
東山田,東山田,35.554302,139.604369
高田,高田,35.549713,139.619944
日吉本町,日吉本町,35.549883,139.633554
新綱島,新綱島,35.536104,139.636103
日進,日進,35.931555,139.606111
西大宮,西大宮,35.922281,139.579797
指扇,指扇,35.917023,139.564951
南古谷,南古谷,35.903344,139.519082
西川越,西川越,35.91909,139.459746
的場,的場,35.917478,139.435376
笠幡,笠幡,35.907551,139.40622
武蔵高萩,武蔵高萩,35.901729,139.371123
鉄道博物館,鉄道博物館,35.920271,139.617796
加茂宮,加茂宮,35.93568,139.616688
東宮原,東宮原,35.94262,139.618054
今羽,今羽,35.949941,139.619443
吉野原,吉野原,35.957065,139.620862
原市,原市,35.964072,139.622531
沼南,沼南,35.971165,139.623481
丸山,丸山,35.97989,139.624711
志久,志久,35.991099,139.62228
伊奈中央,伊奈中央,35.999537,139.617094
羽貫,羽貫,36.007311,139.608608
内宿,内宿,36.014163,139.599878
杉戸高野台,杉戸高野台,36.051536,139.714582
幸手,幸手,36.074297,139.714937
南栗橋,南栗橋,36.113157,139.713004
新古河,新古河,36.192686,139.686904
柳生,柳生,36.206756,139.659645
板倉東洋大前,板倉東洋大前,36.222404,139.648493
藤岡,藤岡,36.255628,139.64555
静和,静和,36.31651,139.684864
新大平下,新大平下,36.339024,139.701886
栃木,栃木,36.371912,139.731037
新栃木,新栃木,36.390149,139.742308
合戦場,合戦場,36.407647,139.741057
家中,家中,36.429783,139.747344
東武金崎,東武金崎,36.466288,139.749468
楡木,楡木,36.507497,139.745164
樅山,樅山,36.532667,139.741875
新鹿沼,新鹿沼,36.556998,139.74478
北鹿沼,北鹿沼,36.580811,139.737646
板荷,板荷,36.619476,139.707739
下小代,下小代,36.651303,139.713849
明神,明神,36.676566,139.712301
下今市,下今市,36.72563,139.692666
上今市,上今市,36.727962,139.681026
東武日光,東武日光,36.748233,139.61975
一本松,一本松,35.94008,139.370062
西大家,西大家,35.931698,139.356321
川角,川角,35.937438,139.346426
武州長瀬,武州長瀬,35.942023,139.325561
東毛呂,東毛呂,35.947058,139.315303
武州唐沢,武州唐沢,35.952127,139.30912
北大宮,北大宮,35.91716,139.624726
大宮公園,大宮公園,35.92374,139.632903
大和田,大和田,35.929359,139.65051
七里,七里,35.936464,139.665948
岩槻,岩槻,35.950239,139.693197
東岩槻,東岩槻,35.963273,139.712192
豊春,豊春,35.968014,139.72601
八木崎,八木崎,35.978376,139.741785
藤の牛島,藤の牛島,35.98026,139.778038
南桜井,南桜井,35.980441,139.807988
川間,川間,35.979172,139.83385
七光台,七光台,35.970884,139.852906
清水公園,清水公園,35.959364,139.85967
愛宕,愛宕,38.397371,141.065
野田市,野田市,35.943652,139.870728
梅郷,梅郷,35.931575,139.891086
運河,運河,35.914392,139.906063
江戸川台,江戸川台,35.897344,139.91045
初石,初石,35.883783,139.917861
豊四季,豊四季,35.86657,139.93929
新柏,新柏,35.838128,139.966994
増尾,増尾,35.829704,139.976604
逆井,逆井,35.823336,139.983812
高柳,高柳,35.808211,139.998936
六実,六実,35.793715,139.999195
鎌ヶ谷,鎌ヶ谷,35.763765,139.997266
馬込沢,馬込沢,35.741586,139.992199
塚田,塚田,35.722102,139.982859
新船橋,新船橋,35.710993,139.979765
西羽生,西羽生,36.17635,139.523986
新郷,新郷,36.171317,139.510474
武州荒木,武州荒木,36.162614,139.488569
東行田,東行田,36.147265,139.468394
行田市,行田市,36.143759,139.458851
持田,持田,36.137615,139.44155
ソシオ流通センター,ソシオ流通センター,36.1365,139.424333
上熊谷,上熊谷,36.142657,139.38134
石原,石原,36.147612,139.368901
ひろせ野鳥の森,ひろせ野鳥の森,36.146242,139.352086
大麻生,大麻生,36.144612,139.331859
明戸,明戸,36.142958,139.303306
武川,武川,36.142197,139.281714
永田,永田,35.503129,140.311162
ふかや花園,ふかや花園,36.13185,139.250995
小前田,小前田,36.12895,139.222386
桜沢,桜沢,36.128672,139.206981
波久礼,波久礼,36.126728,139.158078
樋口,樋口,36.131076,139.122226
野上,野上,36.11157,139.110865
長瀞,長瀞,36.095462,139.112346
上長瀞,上長瀞,36.086169,139.11319
親鼻,親鼻,36.077539,139.106103
皆野,皆野,36.068682,139.093947
和銅黒谷,和銅黒谷,36.046671,139.101666
大野原,大野原,36.018586,139.094071
秩父,秩父,35.99883,139.086044
御花畑,御花畑,35.992369,139.083614
影森,影森,35.972015,139.068413
浦山口,浦山口,35.963922,139.058134
武州中川,武州中川,35.958347,139.035439
武州日野,武州日野,35.953867,139.021888
白久,白久,35.95895,138.993263
三峰口,三峰口,35.960075,138.978706
下山口,下山口,35.77941,139.441097
西吾野,西吾野,35.927082,139.202425
正丸,正丸,35.938324,139.181521
芦ヶ久保,芦ヶ久保,35.976505,139.135982
横瀬,横瀬,35.985548,139.097818
西武秩父,西武秩父,35.990061,139.083548
木更津,木更津,35.381668,139.92611
祇園,祇園,35.391528,139.948111
上総清川,上総清川,35.390981,139.965612
東清川,東清川,35.390017,139.985847
横田,横田,35.386207,140.020138
東横田,東横田,35.386185,140.035995
馬来田,馬来田,35.36681,140.058485
下郡,下郡,35.355018,140.055372
小櫃,小櫃,35.328252,140.059794
俵田,俵田,35.314495,140.061386
久留里,久留里,35.295812,140.075613
平山,平山,35.274312,140.064682
上総松丘,上総松丘,35.258226,140.064046
上総亀山,上総亀山,35.233153,140.089479
本千葉,本千葉,35.601202,140.120987
浜野,浜野,35.551876,140.132089
八幡宿,八幡宿,35.536189,140.120072
五井,五井,35.512985,140.089522
姉ケ崎,姉ケ崎,35.4786,140.041749
長浦,長浦,35.450234,139.995478
袖ケ浦,袖ケ浦,35.431997,139.95788
巌根,巌根,35.414285,139.933229
君津,君津,35.333619,139.895697
青堀,青堀,35.330304,139.858189
大貫,大貫,35.291661,139.855541
佐貫町,佐貫町,35.260113,139.876106
上総湊,上総湊,35.221855,139.871016
竹岡,竹岡,35.197582,139.830159
浜金谷,浜金谷,35.168215,139.822141
保田,保田,35.14148,139.838114
安房勝山,安房勝山,35.114022,139.83339
岩井,岩井,35.093062,139.849839
富浦,富浦,35.04614,139.837811
那古船形,那古船形,35.028987,139.851388
館山,館山,34.9959,139.861888
九重,九重,34.99752,139.911383
千倉,千倉,34.976704,139.954738
千歳,千歳,34.991701,139.966378
南三原,南三原,35.021065,139.979204
和田浦,和田浦,35.041885,140.019569
江見,江見,35.062513,140.061026
太海,太海,35.081435,140.096229
安房鴨川,安房鴨川,35.107465,140.103566
鎌取,鎌取,35.562795,140.178583
誉田,誉田,35.546996,140.213748
土気,土気,35.530866,140.269783
大網,大網,35.522427,140.311111
本納,本納,35.48227,140.30758
新茂原,新茂原,35.449477,140.29983
茂原,茂原,35.426733,140.304121
八積,八積,35.403971,140.345367
上総一ノ宮,上総一ノ宮,35.373401,140.365138
東浪見,東浪見,35.34669,140.376706
太東,太東,35.319942,140.381184
長者町,長者町,35.295839,140.385021
三門,三門,35.282377,140.391567
大原,大原,35.251097,140.390864
浪花,浪花,35.222674,140.379428
御宿,御宿,35.188028,140.35197
勝浦,勝浦,35.152722,140.312142
鵜原,鵜原,35.140828,140.278446
上総興津,上総興津,35.137146,140.250487
行川アイランド,行川アイランド,35.11832,140.226962
安房小湊,安房小湊,35.128597,140.190337
安房天津,安房天津,35.125473,140.154487
佐倉,佐倉,35.709743,140.226722
酒々井,酒々井,35.731737,140.275271
成田,成田,35.777796,140.313853
久住,久住,35.832232,140.338929
滑河,滑河,35.877079,140.347871
下総神崎,下総神崎,35.8948,140.410657
大戸,大戸,35.890004,140.457828
佐原,佐原,35.894522,140.494074
香取,香取,35.897856,140.532367
水郷,水郷,35.885508,140.570181
小見川,小見川,35.849971,140.604587
笹川,笹川,35.839753,140.655716
下総橘,下総橘,35.818673,140.702273
下総豊里,下総豊里,35.792899,140.721011
椎柴,椎柴,35.765204,140.758875
松岸,松岸,35.739386,140.795143
下総松崎,下総松崎,35.807806,140.27749
安食,安食,35.835682,140.242051
小林,小林,35.830783,140.193028
木下,木下,35.838817,140.147954
布佐,布佐,35.849371,140.13293
新木,新木,35.862352,140.107047
湖北,湖北,35.867165,140.077959
東我孫子,東我孫子,35.868945,140.047754
福俵,福俵,35.54617,140.341904
東金,東金,35.560172,140.363743
求名,求名,35.579947,140.39626
成東,成東,35.608513,140.410109
東千葉,東千葉,35.617014,140.122261
都賀,都賀,35.635491,140.148736
四街道,四街道,35.662756,140.165023
物井,物井,35.68566,140.200263
南酒々井,南酒々井,35.704217,140.267828
榎戸,榎戸,35.683967,140.288136
八街,八街,35.663228,140.317304
日向,日向,35.628402,140.362447
松尾,松尾,35.63604,140.457587
横芝,横芝,35.661739,140.490736
飯倉,飯倉,35.685638,140.522328
八日市場,八日市場,35.699317,140.552419
干潟,干潟,35.718308,140.603304
旭,旭,35.721832,140.655041
飯岡,飯岡,35.729339,140.683896
倉橋,倉橋,35.737836,140.714018
猿田,猿田,35.747383,140.7374
銚子,銚子,35.729449,140.827557
十二橋,十二橋,35.916984,140.545707
潮来,潮来,35.936904,140.549473
延方,延方,35.958072,140.58875
鹿島神宮,鹿島神宮,35.970614,140.625676
鹿島サッカースタジアム,鹿島サッカースタジアム,35.992707,140.63606
西大原,西大原,35.260407,140.378029
上総東,上総東,35.263313,140.344974
新田野,新田野,35.276408,140.328081
国吉,国吉,35.280497,140.314046
上総中川,上総中川,35.282763,140.280636
城見ヶ丘,城見ヶ丘,35.291741,140.252693
大多喜,大多喜,35.286466,140.243833
小谷松,小谷松,35.268938,140.251142
東総元,東総元,35.259314,140.247381
久我原,久我原,35.250265,140.247718
総元,総元,35.240588,140.240413
西畑,西畑,35.25051,140.215176
上総中野,上総中野,35.250051,140.199571
リゾートゲートウェイ・ステーション,リゾートゲートウェイ・ステーション,35.635218,139.885166
東京ディズニーランド・ステーション,東京ディズニーランド・ステーション,35.63595,139.878657
ベイサイド・ステーション,ベイサイド・ステーション,35.627884,139.876397
東京ディズニーシー・ステーション,東京ディズニーシー・ステーション,35.627359,139.889502
千葉中央,千葉中央,35.607354,140.117809
千葉寺,千葉寺,35.590311,140.132236
大森台,大森台,35.584126,140.149398
学園前,学園前,35.560364,140.158416
おゆみ野,おゆみ野,35.550029,140.166264
ちはら台,ちはら台,35.534017,140.17029
京成幕張本郷,京成幕張本郷,35.672551,140.042091
京成幕張,京成幕張,35.66078,140.05591
検見川,検見川,35.652512,140.066656
京成稲毛,京成稲毛,35.637783,140.085505
みどり台,みどり台,35.624994,140.097413
西登戸,西登戸,35.617615,140.102801
新千葉,新千葉,35.612455,140.108557
京成千葉,京成千葉,35.6116,140.114273
市役所前,市役所前,35.606878,140.107757
葭川公園,葭川公園,35.608551,140.120142
県庁前,県庁前,35.603958,140.12222
千葉公園,千葉公園,35.619774,140.117944
作草部,作草部,35.625806,140.115314
天台,天台,35.631447,140.112902
穴川,穴川,35.639645,140.111849
スポーツセンター,スポーツセンター,35.643164,140.11611
動物公園,動物公園,35.642585,140.125437
みつわ台,みつわ台,35.6387,140.134873
桜木,桜木,35.631308,140.160935
小倉台,小倉台,35.627755,140.171873
千城台北,千城台北,35.627436,140.181972
千城台,千城台,35.622314,140.18856
上総村上,上総村上,35.496171,140.100355
海士有木,海士有木,35.481729,140.124264
上総三又,上総三又,35.46592,140.12672
上総山田,上総山田,35.454105,140.126128
光風台,光風台,35.439662,140.114174
馬立,馬立,35.423795,140.114719
上総牛久,上総牛久,35.400213,140.142255
上総川間,上総川間,35.388047,140.150968
上総鶴舞,上総鶴舞,35.381346,140.165006
上総久保,上総久保,35.367481,140.154438
高滝,高滝,35.353074,140.150246
里見,里見,35.336685,140.145505
飯給,飯給,35.320512,140.142358
月崎,月崎,35.302203,140.139394
上総大久保,上総大久保,35.283367,140.145924
養老渓谷,養老渓谷,35.266409,140.159382
地区センター,地区センター,35.726225,140.155041
公園,公園,35.730758,140.153755
女子大,女子大,35.738357,140.155054
中学校,中学校,35.740123,140.14841
井野,井野,36.357457,139.023247
上本郷,上本郷,35.789524,139.916031
松戸新田,松戸新田,35.790652,139.922833
みのり台,みのり台,35.789346,139.929466
八柱,八柱,35.791394,139.937362
常盤平,常盤平,35.803191,139.949522
五香,五香,35.797281,139.965796
元山,元山,35.790229,139.975831
くぬぎ山,くぬぎ山,35.782343,139.975707
北初富,北初富,35.77728,139.991978
初富,初富,35.771992,140.000493
鎌ヶ谷大仏,鎌ヶ谷大仏,35.757827,140.013823
二和向台,二和向台,35.753825,140.023731
三咲,三咲,35.749217,140.028514
滝不動,滝不動,35.737957,140.02622
高根公団,高根公団,35.730436,140.029382
高根木戸,高根木戸,35.726625,140.034923
北習志野,北習志野,35.721674,140.04236
習志野,習志野,35.715293,140.042787
薬園台,薬園台,35.710271,140.037599
前原,前原,35.700666,140.027542
新津田沼,新津田沼,35.690184,140.023745
東海神,東海神,35.705888,139.980343
飯山満,飯山満,35.71407,140.0223
船橋日大前,船橋日大前,35.726931,140.058962
八千代緑が丘,八千代緑が丘,35.728884,140.073461
八千代中央,八千代中央,35.727807,140.103713
村上,村上,35.72371,140.118375
東葉勝田台,東葉勝田台,35.715458,140.126075
幸谷,幸谷,35.826642,139.919912
小金城趾,小金城趾,35.83601,139.916887
鰭ヶ崎,鰭ヶ崎,35.840948,139.911121
流山,流山,35.855771,139.901766
東成田,東成田,35.770091,140.387225
芝山千代田,芝山千代田,35.754248,140.399215
仲ノ町,仲ノ町,35.728813,140.833871
観音,観音,35.728952,140.840112
本銚子,本銚子,35.731055,140.847844
笠上黒生,笠上黒生,35.728427,140.856893
西海鹿島,西海鹿島,35.725131,140.860207
海鹿島,海鹿島,35.722089,140.863096
君ヶ浜,君ヶ浜,35.714093,140.860527
犬吠,犬吠,35.706258,140.860935
外川,外川,35.699314,140.857322
藤代,藤代,35.920565,140.118251
龍ケ崎市,龍ケ崎市,35.930066,140.138217
牛久,牛久,35.975314,140.141039
ひたち野うしく,ひたち野うしく,36.007996,140.158408
荒川沖,荒川沖,36.030552,140.16592
土浦,土浦,36.078644,140.206237
神立,神立,36.120424,140.248615
高浜,高浜,36.163882,140.294745
石岡,石岡,36.191554,140.279709
羽鳥,羽鳥,36.247661,140.28679
岩間,岩間,36.295508,140.276493
友部,友部,36.350597,140.306306
内原,内原,36.370111,140.35282
赤塚,赤塚,36.381755,140.415248
偕楽園,偕楽園,36.373041,140.456292
水戸,水戸,36.370911,140.47676
勝田,勝田,36.394033,140.524482
佐和,佐和,36.430409,140.540477
東海,東海,36.465378,140.565835
大甕,大甕,36.513052,140.619362
常陸多賀,常陸多賀,36.552145,140.632682
日立,日立,36.590408,140.661883
小木津,小木津,36.636533,140.67526
十王,十王,36.671385,140.68623
高萩,高萩,36.714873,140.716707
南中郷,南中郷,36.753501,140.729028
磯原,磯原,36.790684,140.746366
大津港,大津港,36.846085,140.778001
勿来,勿来,36.883883,140.786506
植田,植田,36.920649,140.796468
泉,泉,36.955602,140.854125
湯本,湯本,37.006922,140.849884
内郷,内郷,37.035895,140.855005
いわき,いわき,37.058241,140.892273
草野,草野,37.073863,140.947243
四ツ倉,四ツ倉,37.102338,140.980907
久ノ浜,久ノ浜,37.142465,140.995741
末続,末続,37.172156,140.995565
広野,広野,37.21157,140.998769
Jヴィレッジ,Jヴィレッジ,37.242943,141.007625
木戸,木戸,37.257875,141.00247
竜田,竜田,37.282485,141.002822
富岡,富岡,37.33396,141.02276
夜ノ森,夜ノ森,37.365761,140.991988
大野,大野,37.409367,140.984163
双葉,双葉,37.453795,141.005815
浪江,浪江,37.492291,140.989521
桃内,桃内,37.528661,140.984352
小高,小高,37.56298,140.996375
磐城太田,磐城太田,37.605114,140.991407
原ノ町,原ノ町,37.6379,140.971161
鹿島,鹿島,37.702827,140.970062
日立木,日立木,37.756081,140.934642
相馬,相馬,37.802455,140.925713
駒ヶ嶺,駒ヶ嶺,37.842353,140.925075
新地,新地,37.881123,140.926501
坂元,坂元,37.928454,140.912727
浜吉田,浜吉田,38.002195,140.890083
亘理,亘理,38.039776,140.861317
逢隈,逢隈,38.067584,140.854669
岩沼,岩沼,38.11205,140.863783
小田林,小田林,36.300775,139.85353
結城,結城,36.298056,139.873028
東結城,東結城,36.296554,139.891485
川島,川島,36.295918,139.916382
玉戸,玉戸,36.298547,139.93845
下館,下館,36.303959,139.978268
新治,新治,36.328082,140.039076
岩瀬,岩瀬,36.359377,140.108739
羽黒,羽黒,36.355292,140.142947
福原,福原,36.351507,140.187249
稲田,稲田,36.368903,140.21501
笠間,笠間,36.373056,140.246515
宍戸,宍戸,36.344763,140.288243
常陸青柳,常陸青柳,36.383582,140.484495
常陸津田,常陸津田,36.404171,140.482914
後台,後台,36.423767,140.489899
下菅谷,下菅谷,36.435394,140.494021
中菅谷,中菅谷,36.445662,140.492626
上菅谷,上菅谷,36.455378,140.492659
常陸鴻巣,常陸鴻巣,36.472414,140.467455
瓜連,瓜連,36.497805,140.450438
静,静,36.506012,140.438103
常陸大宮,常陸大宮,36.547554,140.412431
玉川村,玉川村,36.579088,140.374334
野上原,野上原,36.605879,140.390127
山方宿,山方宿,36.6246,140.401244
中舟生,中舟生,36.645683,140.392242
下小川,下小川,36.668975,140.387021
西金,西金,36.69548,140.386468
上小川,上小川,36.719216,140.378604
袋田,袋田,36.754718,140.379583
常陸大子,常陸大子,36.770657,140.350855
下野宮,下野宮,36.815744,140.375282
矢祭山,矢祭山,36.84978,140.395278
東館,東館,36.870264,140.423314
南石井,南石井,36.894625,140.416902
磐城石井,磐城石井,36.904516,140.415321
磐城塙,磐城塙,36.95862,140.41205
近津,近津,37.000487,140.393699
中豊,中豊,37.022479,140.393253
磐城棚倉,磐城棚倉,37.035127,140.384423
磐城浅川,磐城浅川,37.079787,140.414329
里白石,里白石,37.104195,140.416655
磐城石川,磐城石川,37.140635,140.443969
野木沢,野木沢,37.175224,140.42097
川辺沖,川辺沖,37.192794,140.405723
泉郷,泉郷,37.214494,140.405289
川東,川東,37.270119,140.40622
小塩江,小塩江,37.295533,140.430246
谷田川,谷田川,37.31372,140.431117
磐城守山,磐城守山,37.330776,140.406485
安積永盛,安積永盛,37.356967,140.368943
南酒出,南酒出,36.477361,140.498471
額田,額田,36.485705,140.503462
河合,河合,36.508241,140.517118
谷河原,谷河原,36.519782,140.52502
常陸太田,常陸太田,36.531225,140.52777
下館二高前,下館二高前,36.319137,139.972193
折本,折本,36.340684,139.971232
ひぐち,ひぐち,36.357882,139.970057
久下田,久下田,36.37606,139.971756
寺内,寺内,36.410876,139.980077
真岡,真岡,36.439144,140.002632
北真岡,北真岡,36.44909,140.014061
西田井,西田井,36.453407,140.04876
北山,北山,36.455665,140.067708
益子,益子,36.462965,140.088526
七井,七井,36.491814,140.09439
多田羅,多田羅,36.515922,140.089795
市塙,市塙,36.538029,140.110218
笹原田,笹原田,36.533911,140.144837
天矢場,天矢場,36.529292,140.156109
茂木,茂木,36.530851,140.181382
宮脇,宮脇,36.214052,140.099675
筑波山頂,筑波山頂,36.225832,140.101157
工機前,工機前,36.388099,140.524542
金上,金上,36.382319,140.534132
中根,中根,36.367488,140.562138
高田の鉄橋,高田の鉄橋,36.352556,140.580028
那珂湊,那珂湊,36.345453,140.587716
殿山,殿山,36.349497,140.601087
平磯,平磯,36.357546,140.607575
美乃浜学園,美乃浜学園,36.37263,140.616958
磯崎,磯崎,36.37781,140.617934
阿字ヶ浦,阿字ヶ浦,36.383529,140.61244
西取手,西取手,35.908584,140.059437
寺原,寺原,35.911825,140.054551
新取手,新取手,35.917657,140.0421
ゆめみ野,ゆめみ野,35.921129,140.034789
稲戸井,稲戸井,35.926142,140.02269
戸頭,戸頭,35.92951,140.014263
南守谷,南守谷,35.934224,140.00212
新守谷,新守谷,35.966344,139.985864
小絹,小絹,35.981151,139.983328
水海道,水海道,36.017828,139.99137
北水海道,北水海道,36.032123,139.9928
中妻,中妻,36.047291,139.990714
三妻,三妻,36.073507,139.983052
南石下,南石下,36.102262,139.973938
石下,石下,36.117041,139.974323
玉村,玉村,36.135499,139.969959
宗道,宗道,36.153589,139.970573
下妻,下妻,36.182325,139.964461
大宝,大宝,36.203159,139.970193
騰波ノ江,騰波ノ江,36.223232,139.976274
黒子,黒子,36.247396,139.97514
大田郷,大田郷,36.278258,139.959724
佐貫,佐貫,35.929636,140.138292
入地,入地,35.91899,140.157266
竜ヶ崎,竜ヶ崎,35.908586,140.178937
東水戸,東水戸,36.361746,140.516012
常澄,常澄,36.340683,140.558997
大洗,大洗,36.315342,140.562675
涸沼,涸沼,36.266054,140.527356
鹿島旭,鹿島旭,36.224658,140.512601
徳宿,徳宿,36.190356,140.514441
新鉾田,新鉾田,36.152697,140.520408
北浦湖畔,北浦湖畔,36.120453,140.536841
大洋,大洋,36.108341,140.576413
鹿島灘,鹿島灘,36.075568,140.596789
鹿島大野,鹿島大野,36.050674,140.609855
長者ヶ浜潮騒はまなす公園前,長者ヶ浜潮騒はまなす公園前,36.031336,140.618849
荒野台,荒野台,36.016804,140.625194
新前橋,新前橋,36.378936,139.046924
前橋,前橋,36.383399,139.072833
前橋大島,前橋大島,36.370585,139.109557
駒形,駒形,36.354145,139.139483
国定,国定,36.359018,139.242463
岩宿,岩宿,36.395861,139.297058
桐生,桐生,36.41109,139.33319
小俣,小俣,36.37496,139.374416
山前,山前,36.347369,139.411322
足利,足利,36.331888,139.456295
あしかがフラワーパーク,あしかがフラワーパーク,36.315168,139.518408
富田,富田,36.316209,139.52865
佐野,佐野,36.316884,139.578826
岩舟,岩舟,36.326561,139.657955
大平下,大平下,36.344315,139.697264
思川,思川,36.351044,139.781079
鶴田,鶴田,36.538319,139.858818
鹿沼,鹿沼,36.571222,139.762961
文挟,文挟,36.637716,139.727778
下野大沢,下野大沢,36.686427,139.732367
今市,今市,36.720388,139.687348
日光,日光,36.7474,139.62215
高久,高久,36.996572,140.087346
黒田原,黒田原,37.022848,140.119586
豊原,豊原,37.055014,140.155066
白坂,白坂,37.09457,140.184388
白河,白河,37.129692,140.213742
久田野,久田野,37.137048,140.259458
泉崎,泉崎,37.15835,140.299026
矢吹,矢吹,37.205286,140.327983
鏡石,鏡石,37.250733,140.346812
須賀川,須賀川,37.300335,140.372014
日和田,日和田,37.446405,140.388333
五百川,五百川,37.482887,140.38785
本宮,本宮,37.514177,140.399534
二本松,二本松,37.589598,140.435389
安達,安達,37.611724,140.466042
松川,松川,37.653825,140.48442
金谷川,金谷川,37.680526,140.452244
南福島,南福島,37.723665,140.456074
東福島,東福島,37.800447,140.478058
伊達,伊達,37.823917,140.493255
桑折,桑折,37.855258,140.517508
藤田,藤田,37.879062,140.539722
貝田,貝田,37.908226,140.58106
越河,越河,37.933616,140.604572
白石,白石,38.003581,140.626164
東白石,東白石,38.034935,140.651109
北白川,北白川,38.032607,140.692613
大河原,大河原,38.047491,140.740142
船岡,船岡,38.059298,140.767366
槻木,槻木,38.07864,140.809992
館腰,館腰,38.142987,140.880208
名取,名取,38.173017,140.882753
南仙台,南仙台,38.197384,140.883295
太子堂,太子堂,38.21711,140.883436
長町,長町,38.226797,140.885986
東仙台,東仙台,38.276512,140.920204
岩切,岩切,38.300773,140.954617
陸前山王,陸前山王,38.299586,140.97917
国府多賀城,国府多賀城,38.300933,140.99411
塩釜,塩釜,38.309584,141.009564
松島,松島,38.379892,141.065982
品井沼,品井沼,38.431539,141.082408
鹿島台,鹿島台,38.474708,141.097964
松山町,松山町,38.512332,141.075187
小牛田,小牛田,38.541111,141.064355
田尻,田尻,38.596246,141.058912
瀬峰,瀬峰,38.655153,141.07383
梅ヶ沢,梅ヶ沢,38.681678,141.085278
石越,石越,38.768778,141.15906
油島,油島,38.797113,141.175706
花泉,花泉,38.83331,141.180014
清水原,清水原,38.854915,141.156576
有壁,有壁,38.867371,141.120994
山ノ目,山ノ目,38.951253,141.131921
平泉,平泉,38.987935,141.117786
前沢,前沢,39.048686,141.12624
陸中折居,陸中折居,39.094185,141.140864
水沢,水沢,39.138998,141.146395
金ヶ崎,金ヶ崎,39.199615,141.112894
六原,六原,39.227894,141.097605
村崎野,村崎野,39.323027,141.120442
花巻,花巻,39.393182,141.110458
花巻空港,花巻空港,39.442639,141.127625
石鳥谷,石鳥谷,39.490919,141.146861
日詰,日詰,39.538734,141.160637
紫波中央,紫波中央,39.5549,141.15995
古館,古館,39.580844,141.154575
矢幅,矢幅,39.613293,141.148299
岩手飯岡,岩手飯岡,39.65373,141.146861
仙北町,仙北町,39.687919,141.148814
高城町,高城町,38.382731,141.07344
下野花岡,下野花岡,36.649965,140.008606
仁井田,仁井田,36.657271,140.029573
鴻野山,鴻野山,36.666495,140.051656
大金,大金,36.656275,140.095656
小塙,小塙,36.643095,140.11656
滝,滝,36.648558,140.138152
烏山,烏山,36.650455,140.15507
下新田,下新田,36.407776,139.315085
相老,相老,36.410261,139.304178
運動公園,運動公園,36.42038,139.300852
大間々,大間々,36.434617,139.277559
上神梅,上神梅,36.470053,139.257696
本宿,本宿,36.481391,139.259306
水沼,水沼,36.499866,139.277579
花輪,花輪,36.520809,139.30769
小中,小中,36.535644,139.337842
神戸,神戸,36.537467,139.35653
沢入,沢入,36.58064,139.396314
原向,原向,36.617284,139.420593
通洞,通洞,36.636837,139.439671
足尾,足尾,36.641853,139.447773
間藤,間藤,36.653507,139.450078
渡瀬,渡瀬,36.261807,139.537515
田島,田島,36.290229,139.564943
佐野市,佐野市,36.306153,139.57583
堀米,堀米,36.328467,139.580279
吉水,吉水,36.345621,139.579337
田沼,田沼,36.367094,139.581919
多田,多田,36.37809,139.592984
葛生,葛生,36.397937,139.609207
野州平川,野州平川,36.401554,139.753764
野州大塚,野州大塚,36.408759,139.772574
壬生,壬生,36.422472,139.80496
国谷,国谷,36.451442,139.823824
おもちゃのまち,おもちゃのまち,36.466774,139.829506
安塚,安塚,36.485678,139.835572
西川田,西川田,36.514227,139.850247
江曽島,江曽島,36.530951,139.860818
南宇都宮,南宇都宮,36.543783,139.872017
東武宇都宮,東武宇都宮,36.559373,139.880427
大谷向,大谷向,36.73224,139.691916
新高徳,新高徳,36.779816,139.710623
小佐越,小佐越,36.802252,139.706465
東武ワールドスクウェア,東武ワールドスクウェア,36.808333,139.709083
鬼怒川温泉,鬼怒川温泉,36.822622,139.716552
鬼怒川公園,鬼怒川公園,36.841,139.72287
新藤原,新藤原,36.852505,139.732963
龍王峡,龍王峡,36.860909,139.718542
川治温泉,川治温泉,36.884036,139.703775
川治湯元,川治湯元,36.895126,139.702772
湯西川温泉,湯西川温泉,36.929482,139.68824
中三依温泉,中三依温泉,36.985843,139.69614
上三依塩原温泉口,上三依塩原温泉口,37.014461,139.727168
男鹿高原,男鹿高原,37.04784,139.723845
会津高原尾瀬口,会津高原尾瀬口,37.089949,139.705067
宇都宮駅東口,宇都宮駅東口,36.559117,139.899546
東宿郷,東宿郷,36.558288,139.904044
駅東公園前,駅東公園前,36.557993,139.90811
峰,峰,36.557565,139.916261
陽東3丁目,陽東3丁目,36.557303,139.92318
宇都宮大学陽東キャンパス,宇都宮大学陽東キャンパス,36.55707,139.930252
平石,平石,36.55504,139.939274
平石中央小学校前,平石中央小学校前,36.554841,139.944702
飛山城跡,飛山城跡,36.548359,139.963424
清陵高校前,清陵高校前,36.544945,139.97632
清原地区市民センター前,清原地区市民センター前,36.547618,139.984265
グリーンスタジアム前,グリーンスタジアム前,36.555832,139.982512
ゆいの杜西,ゆいの杜西,36.567465,139.987215
ゆいの杜中央,ゆいの杜中央,36.567748,139.99293
ゆいの杜東,ゆいの杜東,36.567635,139.998762
芳賀台,芳賀台,36.566146,140.006464
芳賀町工業団地管理センター前,芳賀町工業団地管理センター前,36.564952,140.010687
かしの森公園前,かしの森公園前,36.572385,140.014602
芳賀・高根沢工業団地,芳賀・高根沢工業団地,36.578638,140.011956
高崎問屋町,高崎問屋町,36.346097,139.017089
群馬総社,群馬総社,36.415574,139.032221
八木原,八木原,36.463738,139.019239
渋川,渋川,36.491251,139.008786
敷島,敷島,36.537636,139.033897
津久田,津久田,36.561063,139.042806
岩本,岩本,36.602184,139.047438
沼田,沼田,36.642513,139.035734
後閑,後閑,36.679547,139.000078
上牧,上牧,36.735616,138.984533
水上,水上,36.778614,138.9688
湯檜曽,湯檜曽,36.802683,138.986209
土合,土合,36.830696,138.967959
土樽,土樽,36.875277,138.861446
越後中里,越後中里,36.910398,138.84846
岩原スキー場前,岩原スキー場前,36.924146,138.839438
石打,石打,36.988663,138.804221
大沢,大沢,37.02117,138.82131
上越国際スキー場前,上越国際スキー場前,37.028755,138.827973
塩沢,塩沢,37.041463,138.848399
六日町,六日町,37.067065,138.875872
五日町,五日町,37.1199,138.908346
八色,八色,37.191747,138.934854
小出,小出,37.233581,138.953526
越後堀之内,越後堀之内,37.23913,138.928003
北堀之内,北堀之内,37.25588,138.896372
越後川口,越後川口,37.272983,138.861514
小千谷,小千谷,37.309822,138.813233
越後滝谷,越後滝谷,37.368723,138.834932
宮内,宮内,37.422223,138.840204
ガーラ湯沢,ガーラ湯沢,36.950315,138.799573
篠ノ井,篠ノ井,36.5771,138.138046
今井,今井,36.595732,138.145347
川中島,川中島,36.614167,138.150679
安茂里,安茂里,36.630262,138.161791
直江津,直江津,37.170251,138.242265
黒井,黒井,37.1837,138.267518
犀潟,犀潟,37.210345,138.305154
土底浜,土底浜,37.222719,138.324779
潟町,潟町,37.234135,138.339902
上下浜,上下浜,37.252178,138.361569
柿崎,柿崎,37.277732,138.385933
米山,米山,37.316804,138.431266
笠島,笠島,37.335794,138.467221
青海川,青海川,37.346143,138.486169
鯨波,鯨波,37.355828,138.517263
柏崎,柏崎,37.363495,138.556303
茨目,茨目,37.356986,138.586714
安田,安田,37.341155,138.612057
北条,北条,37.338262,138.636954
越後広田,越後広田,37.357354,138.661243
長鳥,長鳥,37.366405,138.684063
塚山,塚山,37.355114,138.729829
越後岩塚,越後岩塚,37.38629,138.756372
来迎寺,来迎寺,37.397136,138.783523
前川,前川,37.401795,138.823865
北長岡,北長岡,37.468768,138.86247
押切,押切,37.50467,138.880988
見附,見附,37.540094,138.904792
帯織,帯織,37.572975,138.92848
東光寺,東光寺,37.593098,138.942956
三条,三条,37.620962,138.960593
東三条,東三条,37.628491,138.973703
保内,保内,37.639322,139.014608
加茂,加茂,37.658806,139.048959
羽生田,羽生田,37.693613,139.060715
田上,田上,37.719035,139.074599
矢代田,矢代田,37.748863,139.095654
古津,古津,37.7727,139.114252
新津,新津,37.800383,139.121445
さつき野,さつき野,37.812731,139.117466
荻川,荻川,37.833307,139.111477
亀田,亀田,37.877154,139.108065
越後石山,越後石山,37.896407,139.095429
北高崎,北高崎,36.338791,139.001076
群馬八幡,群馬八幡,36.337641,138.957433
安中,安中,36.331657,138.914368
磯部,磯部,36.298397,138.84965
松井田,松井田,36.309151,138.797705
西松井田,西松井田,36.316067,138.786675
横川,横川,36.336009,138.737926
金島,金島,36.529502,138.976421
祖母島,祖母島,36.54073,138.957042
小野上,小野上,36.552524,138.922202
小野上温泉,小野上温泉,36.556909,138.904882
市城,市城,36.570685,138.882247
中之条,中之条,36.585541,138.850908
群馬原町,群馬原町,36.571694,138.824091
郷原,郷原,36.54876,138.801073
矢倉,矢倉,36.552731,138.78428
岩島,岩島,36.56324,138.759873
川原湯温泉,川原湯温泉,36.545128,138.697339
長野原草津口,長野原草津口,36.5465,138.64959
群馬大津,群馬大津,36.553792,138.628045
羽根尾,羽根尾,36.550165,138.605502
袋倉,袋倉,36.543997,138.579141
万座・鹿沢口,万座・鹿沢口,36.531967,138.551395
大前,大前,36.513696,138.528966
南高崎,南高崎,36.31247,139.012315
佐野のわたし,佐野のわたし,36.302389,139.018139
根小屋,根小屋,36.291114,139.019177
高崎商科大学前,高崎商科大学前,36.284295,139.029654
山名,山名,36.277587,139.038098
西山名,西山名,36.270841,139.032046
馬庭,馬庭,36.261428,139.009321
吉井,吉井,36.256036,138.984418
西吉井,西吉井,36.255753,138.965914
上州新屋,上州新屋,36.256036,138.951776
上州福島,上州福島,36.256408,138.92944
東富岡,東富岡,36.260816,138.901898
上州富岡,上州富岡,36.26046,138.891851
西富岡,西富岡,36.260182,138.882786
上州七日市,上州七日市,36.258666,138.874536
上州一ノ宮,上州一ノ宮,36.253053,138.863924
神農原,神農原,36.242629,138.843835
南蛇井,南蛇井,36.23826,138.813838
千平,千平,36.230021,138.798543
下仁田,下仁田,36.210484,138.786681
中央前橋,中央前橋,36.390915,139.07531
城東,城東,36.391212,139.081124
三俣,三俣,36.393748,139.089192
片貝,片貝,36.393982,139.095597
上泉,上泉,36.39419,139.106598
心臓血管センター,心臓血管センター,36.40559,139.129614
江木,江木,36.407209,139.133391
大胡,大胡,36.412673,139.156263
樋越,樋越,36.415459,139.173308
北原,北原,36.413681,139.184604
新屋,新屋,36.413704,139.19657
粕川,粕川,36.416818,139.210943
膳,膳,36.416821,139.22197
新里,新里,36.418543,139.236949
新川,新川,36.418288,139.257536
東新川,東新川,36.422002,139.267591
赤城,赤城,36.425615,139.276784
桐生球場前,桐生球場前,36.41928,139.297864
天王宿,天王宿,36.414975,139.308054
富士山下,富士山下,36.413992,139.315828
丸山下,丸山下,36.416842,139.32128
西桐生,西桐生,36.414142,139.33269
成島,成島,36.249171,139.505682
本中野,本中野,36.25843,139.469546
篠塚,篠塚,36.256788,139.446077
東小泉,東小泉,36.259696,139.428456
小泉町,小泉町,36.261562,139.42021
西小泉,西小泉,36.258712,139.408525
竜舞,竜舞,36.278894,139.409002
三枚橋,三枚橋,36.313369,139.354938
治良門橋,治良門橋,36.333039,139.341328
藪塚,藪塚,36.358737,139.315737
阿左美,阿左美,36.387116,139.308726
新桐生,新桐生,36.39505,139.320078
